{
  "version": 0.6,
  "generator": "Overpass API 0.7.57.1 74a55df1",
  "osm3s": {
    "timestamp_osm_base": "2022-01-21T08:01:54Z",
    "copyright": "The data included in this document is from www.openstreetmap.org. The data is made available under ODbL."
  },
  "elements": [
    {
      "type": "node",
      "id": 100948360,
      "lat": -12.7762348,
      "lon": 45.2339171,
      "tags": { "leisure": "slipway" }
    },
    {
      "type": "node",
      "id": 364411600,
      "lat": -12.7783585,
      "lon": 45.2328449,
      "tags": {
        "amenity": "ferry_terminal",
        "ferry": "yes",
        "name": "Quai 5/5",
        "public_transport": "station"
      }
    },
    {
      "type": "node",
      "id": 364411621,
      "lat": -12.7816894,
      "lon": 45.2579714,
      "tags": { "leisure": "slipway", "name": "Mamoudzou Ferry" }
    },
    {
      "type": "node",
      "id": 1552576123,
      "lat": -12.781802,
      "lon": 45.2573953,
      "tags": {
        "internet_access": "wlan",
        "name": "Le Rocher",
        "operator": "ORANGE",
        "tourism": "hotel"
      }
    },
    {
      "type": "node",
      "id": 1628342936,
      "lat": -12.8855052,
      "lon": 45.1307492,
      "tags": {
        "amenity": "toilets",
        "fee": "no",
        "source": "local survey (2011)"
      }
    },
    {
      "type": "node",
      "id": 1629895275,
      "lat": -12.9616687,
      "lon": 45.0850591,
      "tags": {
        "fax": "02.69.60.15.19",
        "name": "H\u00f4tel Le Jardin Maor\u00e9",
        "phone": "02.69.60.14.19",
        "tourism": "hotel",
        "website": "http://www.hotel-jardin-maore.com/"
      }
    },
    {
      "type": "node",
      "id": 1629895306,
      "lat": -12.890767,
      "lon": 45.2110206,
      "tags": {
        "email": "sakouli.hotel@wanadoo.fr",
        "fax": "02.69.60.63.64",
        "name": "H\u00f4tel Sakouli",
        "phone": "02.69.60.63.63",
        "stars": "3",
        "tourism": "hotel",
        "website": "https://hotelsakouli.com/",
        "wheelchair": "yes"
      }
    },
    {
      "type": "node",
      "id": 1751057678,
      "lat": -12.7829342,
      "lon": 45.2215956,
      "tags": {
        "addr:street": "Rue du Stade",
        "amenity": "fast_food",
        "name": "Brochetterie",
        "source": "Kaart Ground Survey 2017"
      }
    },
    {
      "type": "node",
      "id": 1772851009,
      "lat": -12.7818653,
      "lon": 45.2366781,
      "tags": {
        "description": "Point de vue vers la Petite Terre",
        "tourism": "viewpoint"
      }
    },
    {
      "type": "node",
      "id": 1820956523,
      "lat": -12.7385144,
      "lon": 45.2070859,
      "tags": {
        "addr:city": "Koungou",
        "addr:postcode": "97600",
        "amenity": "post_office",
        "atm": "yes",
        "brand": "La Poste",
        "name": "La Poste",
        "opening_hours": "Mo-Fr 08:00-12:00,14:00-16:00; Sa 08:00-12:00; PH off; 2021 Dec 31 08:00-12:00; 2022 Feb 28 off",
        "operator": "La Poste",
        "phone": "3631",
        "ref:FR:LaPoste": "79943A",
        "wheelchair": "yes"
      }
    },
    {
      "type": "node",
      "id": 1864218403,
      "lat": -12.7783356,
      "lon": 45.2297041,
      "tags": {
        "addr:street": "Rue Toumbou Seleman",
        "amenity": "restaurant",
        "cuisine": "regional",
        "name": "Le Boboka",
        "source": "Kaart Ground Survey 2017"
      }
    },
    {
      "type": "node",
      "id": 1865686275,
      "lat": -12.7781815,
      "lon": 45.231056,
      "tags": {
        "addr:city": "Mamoudzou",
        "addr:housenumber": "6",
        "addr:postcode": "97600",
        "addr:street": "Place du March\u00e9",
        "amenity": "pharmacy",
        "dispensing": "yes",
        "email": "pharmacie-mahoraise@wanadoo.fr",
        "fax": "+262 2 69 61 00 34",
        "healthcare": "pharmacy",
        "mapillary": "JYzyGPPYhmBxsbjM6O9W7w",
        "name": "Pharmacie Mahoraise",
        "opening_hours": "Mo-Fr 07:30-18:30; Sa 07:30-18:00",
        "phone": "+262 2 69 61 12 39",
        "ref:FR:FINESS": "980500086",
        "source": "Le minist\u00e8re des solidarit\u00e9s et de la sant\u00e9 - 03/2019",
        "type:FR:FINESS": "620",
        "website": "https://pharmaciemahoraise.pharminfo.fr"
      }
    },
    {
      "type": "node",
      "id": 1865686285,
      "lat": -12.7779108,
      "lon": 45.2316727,
      "tags": { "amenity": "atm", "operator": "BFC OI" }
    },
    {
      "type": "node",
      "id": 1865686289,
      "lat": -12.7771001,
      "lon": 45.231517,
      "tags": { "name": "Caribou Hotel", "tourism": "hotel" }
    },
    {
      "type": "node",
      "id": 1865686296,
      "lat": -12.7798314,
      "lon": 45.2276225,
      "tags": {
        "addr:city": "Mamoudzou",
        "addr:postcode": "97600",
        "amenity": "police",
        "name": "Police Nationale",
        "official_name": "Commissariat de police de Mamoudzou",
        "operator": "Police nationale",
        "operator:wikidata": "Q121484",
        "phone": "+262 2 69 61 12 22",
        "police:FR": "police",
        "source": "data.gouv.fr:Minist\u00e8re de l'Int\u00e9rieur - 10/2018",
        "wikidata": "Q61954675"
      }
    },
    {
      "type": "node",
      "id": 1865686299,
      "lat": -12.7796648,
      "lon": 45.2319363,
      "tags": { "amenity": "atm", "operator": "Banque Postale" }
    },
    {
      "type": "node",
      "id": 1871359411,
      "lat": -12.7983438,
      "lon": 45.2747664,
      "tags": { "amenity": "townhall", "name": "Mairie de Pamandzi" }
    },
    {
      "type": "node",
      "id": 1871359412,
      "lat": -12.7882819,
      "lon": 45.2725539,
      "tags": { "amenity": "townhall", "name": "Mairie de Labattoir" }
    },
    {
      "type": "node",
      "id": 1871619359,
      "lat": -12.7310959,
      "lon": 45.194665,
      "tags": { "name": "H\u00f4tel Tr\u00e9vani", "tourism": "hotel" }
    },
    {
      "type": "node",
      "id": 1955635666,
      "lat": -12.7323918,
      "lon": 45.1858728,
      "tags": {
        "email": "villa.maora@yahoo.fr",
        "name": "La Villa Maora",
        "phone": "02 69 62 74 40",
        "tourism": "hotel"
      }
    },
    {
      "type": "node",
      "id": 1955649372,
      "lat": -12.8063679,
      "lon": 45.1547461,
      "tags": {
        "name": "G\u00eete du Mont Combani",
        "tourism": "hotel",
        "website": "http://www.gitedumontcombani.com"
      }
    },
    {
      "type": "node",
      "id": 1955678646,
      "lat": -12.957564,
      "lon": 45.1291242,
      "tags": { "amenity": "parking", "parking": "surface" }
    },
    {
      "type": "node",
      "id": 2165972753,
      "lat": -12.7894484,
      "lon": 45.2683789,
      "tags": {
        "amenity": "marketplace",
        "name": "March\u00e9 Couvert de Labattoir"
      }
    },
    {
      "type": "node",
      "id": 2382408086,
      "lat": -12.8430175,
      "lon": 45.1840422,
      "tags": { "amenity": "atm", "operator": "La Banque Postale" }
    },
    {
      "type": "node",
      "id": 2382410796,
      "lat": -12.8663655,
      "lon": 45.1973993,
      "tags": { "amenity": "drinking_water" }
    },
    {
      "type": "node",
      "id": 2382415696,
      "lat": -12.7756928,
      "lon": 45.2250446,
      "tags": {
        "addr:street": "Boulevard Mawana-Madi",
        "name": "Mayotte Moto",
        "shop": "motorcycle",
        "source": "Kaart Ground Survey 2017"
      }
    },
    {
      "type": "node",
      "id": 2382416326,
      "lat": -12.7660364,
      "lon": 45.2287045,
      "tags": {
        "addr:postcode": "97600",
        "addr:street": "Route de la Zone Nel",
        "name": "Mayotte 2 Roues",
        "shop": "motorcycle"
      }
    },
    {
      "type": "node",
      "id": 2442339567,
      "lat": -12.8020719,
      "lon": 45.212276,
      "tags": {
        "description": "Cosm\u00e9tique Afro",
        "name": "Beaut\u00e9+",
        "shop": "cosmetics"
      }
    },
    {
      "type": "node",
      "id": 2442339568,
      "lat": -12.7743363,
      "lon": 45.2246854,
      "tags": {
        "amenity": "fast_food",
        "cuisine": "chicken",
        "name": "Broaster Chicken"
      }
    },
    {
      "type": "node",
      "id": 2442339578,
      "lat": -12.7749053,
      "lon": 45.2251248,
      "tags": {
        "name": "Grossiste Informatique",
        "phone": "02 69 63 55 04",
        "shop": "computer",
        "wholesale": "yes"
      }
    },
    {
      "type": "node",
      "id": 2442339582,
      "lat": -12.8020467,
      "lon": 45.2122181,
      "tags": { "name": "K&K Landra Mode", "shop": "clothes" }
    },
    {
      "type": "node",
      "id": 2442339590,
      "lat": -12.7756816,
      "lon": 45.2248113,
      "tags": { "name": "Only", "operator": "Only", "shop": "mobile_phone" }
    },
    {
      "type": "node",
      "id": 2442339594,
      "lat": -12.7741971,
      "lon": 45.2245013,
      "tags": { "name": "PCI Informatique", "shop": "computer" }
    },
    {
      "type": "node",
      "id": 2442339604,
      "lat": -12.7755218,
      "lon": 45.2248091,
      "tags": {
        "description": "Th\u00e9 et tisane en vrac",
        "name": "Aliz\u00e9",
        "shop": "tea"
      }
    },
    {
      "type": "node",
      "id": 2442339607,
      "lat": -12.7622602,
      "lon": 45.2261344,
      "tags": {
        "amenity": "atm",
        "check_date": "2021-01-31",
        "drive_through": "yes",
        "operator": "BRED Banque Populaire"
      }
    },
    {
      "type": "node",
      "id": 2442339679,
      "lat": -12.7749238,
      "lon": 45.2250299,
      "tags": { "shop": "books" }
    },
    {
      "type": "node",
      "id": 2442339718,
      "lat": -12.8007842,
      "lon": 45.2089209,
      "tags": { "amenity": "atm" }
    },
    {
      "type": "node",
      "id": 2442932185,
      "lat": -12.7714383,
      "lon": 45.22388,
      "tags": {
        "addr:street": "Avenue de l'Europe",
        "name": "Fracomex",
        "shop": "general",
        "source": "Kaart Ground Survey 2017"
      }
    },
    {
      "type": "node",
      "id": 2442932186,
      "lat": -12.771505,
      "lon": 45.2235984,
      "tags": { "name": "HG Mayotte", "shop": "copyshop" }
    },
    {
      "type": "node",
      "id": 2442932187,
      "lat": -12.7740507,
      "lon": 45.224697,
      "tags": {
        "addr:street": "Avenue Martin Luther King",
        "name": "Meubles 101",
        "shop": "furniture",
        "source": "Kaart Ground Survey 2017"
      }
    },
    {
      "type": "node",
      "id": 2442932188,
      "lat": -12.771476,
      "lon": 45.2250916,
      "tags": {
        "addr:street": "Avenue de l'Europe",
        "brand": "Nissan;Fiat;Suzuki",
        "name": "Zoom Boutique",
        "shop": "car_parts",
        "source": "Kaart Ground Survey 2017"
      }
    },
    {
      "type": "node",
      "id": 2442932189,
      "lat": -12.7714114,
      "lon": 45.2248446,
      "tags": {
        "addr:street": "Avenue de l'Europe",
        "name": "Zoom Division automobile",
        "shop": "car",
        "source": "Kaart Ground Survey 2017"
      }
    },
    {
      "type": "node",
      "id": 2442951146,
      "lat": -12.8011913,
      "lon": 45.2107584,
      "tags": { "amenity": "atm", "operator": "BFC" }
    },
    {
      "type": "node",
      "id": 2443202117,
      "lat": -12.7772448,
      "lon": 45.2316394,
      "tags": { "name": "Aux Gourmandises", "shop": "bakery" }
    },
    {
      "type": "node",
      "id": 2443202118,
      "lat": -12.7773956,
      "lon": 45.2316109,
      "tags": { "name": "Carambole", "shop": "clothes" }
    },
    {
      "type": "node",
      "id": 2443202119,
      "lat": -12.7772766,
      "lon": 45.2315397,
      "tags": {
        "addr:street": "Rue Said-Soimihi",
        "amenity": "restaurant",
        "name": "Caribou Caf\u00e9",
        "source": "Kaart Ground Survey 2017"
      }
    },
    {
      "type": "node",
      "id": 2443202123,
      "lat": -12.77733,
      "lon": 45.2317302,
      "tags": {
        "addr:street": "Boulevard Mawana-Madi",
        "name": "Khodidas",
        "shop": "jewelry",
        "source": "Kaart Ground Survey 2017"
      }
    },
    {
      "type": "node",
      "id": 2443202125,
      "lat": -12.777394,
      "lon": 45.2317218,
      "tags": {
        "addr:street": "Boulevard Mawana-Madi",
        "name": "Mayra Mode",
        "shop": "clothes",
        "source": "Kaart Ground Survey 2017"
      }
    },
    {
      "type": "node",
      "id": 2446809775,
      "lat": -12.7819416,
      "lon": 45.2308287,
      "tags": {
        "addr:street": "Boulevard Halidi Selemani",
        "name": "Afrique \u00c9l\u00e9gance",
        "shop": "clothes",
        "source": "Kaart Ground Survey 2017"
      }
    },
    {
      "type": "node",
      "id": 2446809776,
      "lat": -12.7827034,
      "lon": 45.2288064,
      "tags": { "name": "Afro", "shop": "hairdresser" }
    },
    {
      "type": "node",
      "id": 2446809777,
      "lat": -12.7850784,
      "lon": 45.2252147,
      "tags": { "name": "Agence 2 l'\u00eele", "shop": "travel_agency" }
    },
    {
      "type": "node",
      "id": 2446809778,
      "lat": -12.7850246,
      "lon": 45.2252333,
      "tags": {
        "amenity": "driving_school",
        "name": "Auto-\u00c9cole Antoy Fils"
      }
    },
    {
      "type": "node",
      "id": 2446809779,
      "lat": -12.7843851,
      "lon": 45.2239334,
      "tags": { "name": "Bagu\u00e9pi", "shop": "bakery" }
    },
    {
      "type": "node",
      "id": 2446809780,
      "lat": -12.7819235,
      "lon": 45.2308747,
      "tags": {
        "addr:street": "Boulevard Halidi Selemani",
        "name": "Baobab Company",
        "shop": "clothes",
        "source": "Kaart Ground Survey 2017"
      }
    },
    {
      "type": "node",
      "id": 2446809781,
      "lat": -12.7824628,
      "lon": 45.2294158,
      "tags": { "name": "Bio 33", "shop": "beauty" }
    },
    {
      "type": "node",
      "id": 2446809782,
      "lat": -12.7809413,
      "lon": 45.2326858,
      "tags": {
        "addr:street": "Boulevard Halidi Selemani",
        "name": "Boulangerie Au Petit Pain",
        "shop": "bakery",
        "source": "Kaart Ground Survey 2017"
      }
    },
    {
      "type": "node",
      "id": 2446809784,
      "lat": -12.7845661,
      "lon": 45.2293823,
      "tags": {
        "addr:city": "Mamoudzou",
        "addr:postcode": "97600",
        "healthcare": "centre",
        "healthcare:speciality": "radiology",
        "name": "Cabinet Radiologie des Jardins",
        "website": "https://www.reseaux-sante-mayotte.fr/entreprise/messaouidi-kamel"
      }
    },
    {
      "type": "node",
      "id": 2446809785,
      "lat": -12.780785,
      "lon": 45.233049,
      "tags": {
        "amenity": "dentist",
        "healthcare": "dentist",
        "name": "Cabinet dentaire"
      }
    },
    {
      "type": "node",
      "id": 2446809787,
      "lat": -12.7851364,
      "lon": 45.2253159,
      "tags": { "name": "Coiff & Co", "shop": "hairdresser" }
    },
    {
      "type": "node",
      "id": 2446809789,
      "lat": -12.7846007,
      "lon": 45.2243379,
      "tags": {
        "amenity": "bank",
        "atm": "yes",
        "brand": "Cr\u00e9dit Agricole",
        "brand:wikidata": "Q590952",
        "brand:wikipedia": "fr:Cr\u00e9dit agricole",
        "name": "Cr\u00e9dit Agricole",
        "operator": "Cr\u00e9dit Agricole"
      }
    },
    {
      "type": "node",
      "id": 2446809790,
      "lat": -12.7811038,
      "lon": 45.2324727,
      "tags": {
        "description": "Tatouage au henne",
        "name": "Djing",
        "shop": "tattoo"
      }
    },
    {
      "type": "node",
      "id": 2446809792,
      "lat": -12.7821285,
      "lon": 45.2306125,
      "tags": {
        "addr:street": "Boulevard Halidi Selemani",
        "shop": "hairdresser",
        "source": "Kaart Ground Survey 2017"
      }
    },
    {
      "type": "node",
      "id": 2446809794,
      "lat": -12.7813751,
      "lon": 45.2336587,
      "tags": {
        "name": "Hair Diffusion",
        "opening_hours": "Mo 12:00-16:00; Tu-Fr 09:00-16:00; Sa 09:00-13:00",
        "shop": "hairdresser"
      }
    },
    {
      "type": "node",
      "id": 2446809797,
      "lat": -12.7820033,
      "lon": 45.2310672,
      "tags": {
        "addr:city": "Mamoudzou",
        "addr:postcode": "97600",
        "addr:street": "Boulevard Halidi Selemani",
        "name": "Kalo",
        "shop": "electronics",
        "source": "Kaart Ground Survey 2017"
      }
    },
    {
      "type": "node",
      "id": 2446809801,
      "lat": -12.7845417,
      "lon": 45.2294485,
      "tags": {
        "addr:city": "Mamoudzou",
        "addr:postcode": "97600",
        "addr:street": "R\u00e9sidence Jardin Cr\u00e9ole",
        "healthcare": "centre",
        "healthcare:speciality": "biology",
        "name": "Laboratoire Troalen Mamoudzou",
        "phone": "+262 2 69 63 00 00",
        "website": "https://www.reseaux-sante-mayotte.fr/entreprise/laboratoire-troalen-mamoudzou"
      }
    },
    {
      "type": "node",
      "id": 2446809802,
      "lat": -12.7819975,
      "lon": 45.2305693,
      "tags": {
        "addr:street": "Boulevard Halidi Selemani",
        "healthcare": "laboratory",
        "name": "Laboratoire Sublimm",
        "source": "Kaart Ground Survey 2017"
      }
    },
    {
      "type": "node",
      "id": 2446809803,
      "lat": -12.782034,
      "lon": 45.2309883,
      "tags": {
        "addr:street": "Boulevard Halidi Selemani",
        "name": "Ladiva",
        "shop": "clothes",
        "source": "Kaart Ground Survey 2017"
      }
    },
    {
      "type": "node",
      "id": 2446809805,
      "lat": -12.7807089,
      "lon": 45.2329401,
      "tags": { "name": "Le M\u00e9tiss", "shop": "clothes" }
    },
    {
      "type": "node",
      "id": 2446809806,
      "lat": -12.7819844,
      "lon": 45.2307092,
      "tags": {
        "addr:street": "Boulevard Halidi Selemani",
        "name": "Magasin Electa",
        "shop": "electronics",
        "source": "Kaart Ground Survey 2017"
      }
    },
    {
      "type": "node",
      "id": 2446809807,
      "lat": -12.7828583,
      "lon": 45.2199106,
      "tags": {
        "amenity": "community_centre",
        "name": "Maison des Adolescents"
      }
    },
    {
      "type": "node",
      "id": 2446809808,
      "lat": -12.7827034,
      "lon": 45.2290341,
      "tags": { "name": "Maor\u00e9 Voyages", "shop": "travel_agency" }
    },
    {
      "type": "node",
      "id": 2446809809,
      "lat": -12.7828157,
      "lon": 45.2291837,
      "tags": { "name": "Uvaga", "shop": "clothes" }
    },
    {
      "type": "node",
      "id": 2446809810,
      "lat": -12.781279,
      "lon": 45.2323102,
      "tags": { "name": "May-Shoes", "shop": "shoes" }
    },
    {
      "type": "node",
      "id": 2446809811,
      "lat": -12.7814402,
      "lon": 45.2324215,
      "tags": { "name": "Mayana Dream", "shop": "clothes" }
    },
    {
      "type": "node",
      "id": 2446809813,
      "lat": -12.7813649,
      "lon": 45.2323691,
      "tags": { "name": "Mode for U", "shop": "clothes" }
    },
    {
      "type": "node",
      "id": 2446809818,
      "lat": -12.7819593,
      "lon": 45.2307761,
      "tags": {
        "addr:street": "Boulevard Halidi Selemani",
        "name": "Only",
        "operator": "Only",
        "shop": "mobile_phone",
        "source": "Kaart Ground Survey 2017"
      }
    },
    {
      "type": "node",
      "id": 2446809820,
      "lat": -12.7820178,
      "lon": 45.2310262,
      "tags": {
        "addr:street": "Boulevard Halidi Selemani",
        "name": "Optique du Lagon",
        "shop": "optician",
        "source": "Kaart Ground Survey 2017"
      }
    },
    {
      "type": "node",
      "id": 2446809821,
      "lat": -12.7842209,
      "lon": 45.2236253,
      "tags": {
        "addr:city": "Mamoudzou",
        "addr:housenumber": "5",
        "addr:postcode": "97600",
        "addr:street": "Boulevard du Stade",
        "amenity": "pharmacy",
        "dispensing": "yes",
        "fax": "+262 2 69 62 44 49",
        "mapillary": "FpTY-_V4OP9JinJRsZIriA",
        "name": "Pharmacie du Baobab",
        "note": "https://pharmaciedubaobab97.pharminfo.fr",
        "opening_hours": "Mo-Fr 07:00-19:00; Sa 07:00-13:00",
        "operator": "Fr\u00e9d\u00e9ric LETISSIER",
        "phone": "+262 2 69 62 44 48",
        "ref:FR:FINESS": "980500060",
        "ref:FR:SIRET": "05439431700017",
        "website": "https://www.reseaux-sante-mayotte.fr/entreprise/pharmacie-du-baobab"
      }
    },
    {
      "type": "node",
      "id": 2446809822,
      "lat": -12.7847828,
      "lon": 45.2291082,
      "tags": {
        "addr:city": "Mamoudzou",
        "addr:postcode": "97600",
        "amenity": "pharmacy",
        "dispensing": "yes",
        "drive_through": "yes",
        "fax": "+262 2 69 61 40 76",
        "mapillary": "7_V_vgeiQKqhLBujkEqCSA",
        "name": "Pharmacie du Lagon",
        "opening_hours": "Mo-Fr 07:30-19:00; Sa 07:30-13:00",
        "operator": "Roseline Nicolas",
        "phone": "+262 2 69 61 40 75",
        "ref:FR:FINESS": "980500185",
        "ref:FR:SIRET": "05439646000013",
        "source": "Le minist\u00e8re des solidarit\u00e9s et de la sant\u00e9 - 03/2019",
        "type:FR:FINESS": "620",
        "website": "https://www.reseaux-sante-mayotte.fr/entreprise/pharmacie-du-lagon"
      }
    },
    {
      "type": "node",
      "id": 2446809823,
      "lat": -12.7845413,
      "lon": 45.2242265,
      "tags": { "name": "Pro-Tech", "shop": "computer" }
    },
    {
      "type": "node",
      "id": 2446809824,
      "lat": -12.7809886,
      "lon": 45.2326513,
      "tags": { "amenity": "bureau_de_change", "name": "RIA" }
    },
    {
      "type": "node",
      "id": 2446809826,
      "lat": -12.7826059,
      "lon": 45.2292358,
      "tags": { "name": "Senteur d'Ylang", "shop": "art" }
    },
    {
      "type": "node",
      "id": 2446809827,
      "lat": -12.785103,
      "lon": 45.2252584,
      "tags": { "name": "Shana", "shop": "clothes" }
    },
    {
      "type": "node",
      "id": 2446809828,
      "lat": -12.7847423,
      "lon": 45.2291759,
      "tags": { "name": "T-Shirt et Compagnie", "shop": "clothes" }
    },
    {
      "type": "node",
      "id": 2446809830,
      "lat": -12.7845219,
      "lon": 45.2241901,
      "tags": { "name": "Vision 2000", "shop": "optician" }
    },
    {
      "type": "node",
      "id": 2446809832,
      "lat": -12.7848512,
      "lon": 45.229,
      "tags": { "name": "Zena Boutique", "shop": "clothes" }
    },
    {
      "type": "node",
      "id": 2446812960,
      "lat": -12.7855898,
      "lon": 45.2257049,
      "tags": { "amenity": "atm", "operator": "Caisse d'\u00c9pargne" }
    },
    {
      "type": "node",
      "id": 2468468517,
      "lat": -12.8062657,
      "lon": 45.2087423,
      "tags": {
        "amenity": "fuel",
        "brand": "Total",
        "brand:wikidata": "Q154037",
        "brand:wikipedia": "fr:Total (entreprise)",
        "name": "Station-services TotalEnergies Tsoundzou",
        "name:ar": "\u062a\u0648\u062a\u0627\u0644",
        "source": "BDOrtho IGN (2016) and survey"
      }
    },
    {
      "type": "node",
      "id": 2468468519,
      "lat": -12.7808529,
      "lon": 45.2288983,
      "tags": {
        "addr:street": "Rue Pasky Daka",
        "amenity": "bar",
        "name": "Jungle Caf\u00e9",
        "source": "Kaart Ground Survey 2017"
      }
    },
    {
      "type": "node",
      "id": 2480065759,
      "lat": -12.8390378,
      "lon": 45.1844835,
      "tags": { "name": "IBS", "shop": "doityourself" }
    },
    {
      "type": "node",
      "id": 2480077894,
      "lat": -12.8325314,
      "lon": 45.1907417,
      "tags": { "name": "garage", "shop": "car_repair" }
    },
    {
      "type": "node",
      "id": 2480077895,
      "lat": -12.8081367,
      "lon": 45.2040774,
      "tags": { "name": "Pain des \u00celes", "shop": "bakery" }
    },
    {
      "type": "node",
      "id": 2480077897,
      "lat": -12.8069239,
      "lon": 45.2070508,
      "tags": { "shop": "bakery" }
    },
    {
      "type": "node",
      "id": 2480077898,
      "lat": -12.8066547,
      "lon": 45.2079521,
      "tags": { "shop": "tyres" }
    },
    {
      "type": "node",
      "id": 2480077899,
      "lat": -12.8026524,
      "lon": 45.2110757,
      "tags": { "shop": "car_repair" }
    },
    {
      "type": "node",
      "id": 2480077901,
      "lat": -12.8020212,
      "lon": 45.2113894,
      "tags": { "name": "Banga pieces", "shop": "car_parts" }
    },
    {
      "type": "node",
      "id": 2480077902,
      "lat": -12.8021677,
      "lon": 45.2113474,
      "tags": { "shop": "bakery" }
    },
    {
      "type": "node",
      "id": 2480077908,
      "lat": -12.7956423,
      "lon": 45.2157695,
      "tags": { "amenity": "car_wash" }
    },
    {
      "type": "node",
      "id": 2480077909,
      "lat": -12.7956797,
      "lon": 45.2159197,
      "tags": { "amenity": "car_rental", "name": "Tropic" }
    },
    {
      "type": "node",
      "id": 2480077913,
      "lat": -12.7893742,
      "lon": 45.2205023,
      "tags": { "name": "Soihili Moto", "shop": "car_repair" }
    },
    {
      "type": "node",
      "id": 2539304155,
      "lat": -12.8351572,
      "lon": 45.1296939,
      "tags": {
        "name": "Cascade de Barakani",
        "tourism": "attraction",
        "waterway": "waterfall"
      }
    },
    {
      "type": "node",
      "id": 2552376195,
      "lat": -12.8626807,
      "lon": 45.1977233,
      "tags": {
        "name": "Vestiges de l\u2019ancienne usine sucri\u00e8re d\u2019Hajangoua",
        "tourism": "attraction"
      }
    },
    {
      "type": "node",
      "id": 2552388016,
      "lat": -12.844933,
      "lon": 45.1956927,
      "tags": { "tourism": "viewpoint" }
    },
    {
      "type": "node",
      "id": 2568542943,
      "lat": -12.8511865,
      "lon": 45.1697848,
      "tags": {
        "name": "Alambic de distillation d'Ylang Ylang",
        "tourism": "attraction"
      }
    },
    {
      "type": "node",
      "id": 2573425597,
      "lat": -12.842121,
      "lon": 45.1838685,
      "tags": { "shop": "greengrocer" }
    },
    {
      "type": "node",
      "id": 2573970786,
      "lat": -12.8430938,
      "lon": 45.1843393,
      "tags": { "shop": "greengrocer" }
    },
    {
      "type": "node",
      "id": 2573970787,
      "lat": -12.8436437,
      "lon": 45.1860774,
      "tags": { "shop": "greengrocer" }
    },
    {
      "type": "node",
      "id": 2573970788,
      "lat": -12.8435979,
      "lon": 45.185679,
      "tags": { "shop": "greengrocer" }
    },
    {
      "type": "node",
      "id": 2574060230,
      "lat": -12.8381716,
      "lon": 45.1729587,
      "tags": { "amenity": "taxi" }
    },
    {
      "type": "node",
      "id": 2574061106,
      "lat": -12.8369622,
      "lon": 45.1776578,
      "tags": { "amenity": "taxi", "bench": "no", "shelter": "no" }
    },
    {
      "type": "node",
      "id": 2702640131,
      "lat": -12.7778662,
      "lon": 45.2293867,
      "tags": {
        "addr:street": "Rue Mariaz\u00e9",
        "amenity": "restaurant",
        "cuisine": "french",
        "name": "Le Maki Gourmand",
        "note": "Horaire \u00e0 v\u00e9rifier",
        "opening_hours": "11:00+",
        "source": "Kaart Ground Survey 2017"
      }
    },
    {
      "type": "node",
      "id": 2725584437,
      "lat": -12.7694896,
      "lon": 45.1320176,
      "tags": { "tourism": "viewpoint" }
    },
    {
      "type": "node",
      "id": 2782705875,
      "lat": -12.7903683,
      "lon": 45.267675,
      "tags": {
        "amenity": "restaurant",
        "cuisine": "brochettes",
        "name": "Le Monaco du Four \u00e0 Chaux"
      }
    },
    {
      "type": "node",
      "id": 2955417283,
      "lat": -12.7746963,
      "lon": 45.2244659,
      "tags": { "name": "Multi-Autos", "shop": "car_repair" }
    },
    {
      "type": "node",
      "id": 2955417285,
      "lat": -12.7748101,
      "lon": 45.2241641,
      "tags": { "name": "Carla Transports", "shop": "car_repair" }
    },
    {
      "type": "node",
      "id": 2965509650,
      "lat": -12.7795514,
      "lon": 45.2250476,
      "tags": {
        "addr:city": "MAMOUDZOU",
        "addr:postcode": "97600",
        "addr:street": "HAUTS JARDINS DU COLLEGE",
        "name": "Agora Market",
        "shop": "supermarket"
      }
    },
    {
      "type": "node",
      "id": 2965562228,
      "lat": -12.7699719,
      "lon": 45.2214125,
      "tags": {
        "amenity": "restaurant",
        "cuisine": "french;pizza",
        "name": "Le Cocotier"
      }
    },
    {
      "type": "node",
      "id": 2965990215,
      "lat": -12.7917175,
      "lon": 45.190022,
      "tags": { "amenity": "drinking_water", "name": "Captage d'eau potable" }
    },
    {
      "type": "node",
      "id": 2966046658,
      "lat": -12.7917676,
      "lon": 45.1902977,
      "tags": { "name": "Cascade", "tourism": "yes", "waterway": "waterfall" }
    },
    {
      "type": "node",
      "id": 3097148193,
      "lat": -12.8505198,
      "lon": 45.1609487,
      "tags": {
        "name": "Alambic de distillation d'Ylang",
        "tourism": "attraction"
      }
    },
    {
      "type": "node",
      "id": 3147808094,
      "lat": -12.7967056,
      "lon": 45.2749396,
      "tags": {
        "name": "La SNIE",
        "operator": "Sodifram",
        "shop": "supermarket"
      }
    },
    {
      "type": "node",
      "id": 3147814644,
      "lat": -12.7965696,
      "lon": 45.2747612,
      "tags": {
        "name": "Sodicash",
        "operator": "Sodifram",
        "shop": "supermarket"
      }
    },
    {
      "type": "node",
      "id": 3854441761,
      "lat": -12.9571844,
      "lon": 45.104224,
      "tags": {
        "amenity": "townhall",
        "name": "Mairie de Kani-K\u00e9li",
        "source": "Service-Public.fr - 08/2018",
        "wheelchair": "yes"
      }
    },
    {
      "type": "node",
      "id": 3928663632,
      "lat": -12.9147266,
      "lon": 45.102088,
      "tags": {
        "leisure": "sports_centre",
        "name": "Base nautique de Hagnoundrou",
        "sport": "sailing"
      }
    },
    {
      "type": "node",
      "id": 3928731533,
      "lat": -12.9052932,
      "lon": 45.1018716,
      "tags": {
        "amenity": "arts_centre",
        "name": "Foyer culturel de Hagnoundrou"
      }
    },
    {
      "type": "node",
      "id": 3978515086,
      "lat": -12.7745114,
      "lon": 45.2229153,
      "tags": { "amenity": "atm" }
    },
    {
      "type": "node",
      "id": 3978515149,
      "lat": -12.7755453,
      "lon": 45.2242164,
      "tags": {
        "amenity": "doctors",
        "fixme": "Identifier le nom et l'adresse du cabinet",
        "healthcare": "doctor"
      }
    },
    {
      "type": "node",
      "id": 3978515153,
      "lat": -12.7759362,
      "lon": 45.2247491,
      "tags": { "shop": "stationery" }
    },
    {
      "type": "node",
      "id": 3978515154,
      "lat": -12.7759369,
      "lon": 45.2248855,
      "tags": { "shop": "clothes" }
    },
    {
      "type": "node",
      "id": 3978515155,
      "lat": -12.775988,
      "lon": 45.2251835,
      "tags": { "shop": "sports" }
    },
    {
      "type": "node",
      "id": 4023666673,
      "lat": -12.9755498,
      "lon": 45.2001563,
      "tags": {
        "name": "Pointe Saziley",
        "note": "\u00e0 v\u00e9rifier",
        "tourism": "viewpoint"
      }
    },
    {
      "type": "node",
      "id": 4202270796,
      "lat": -12.8023163,
      "lon": 45.2826528,
      "tags": { "amenity": "atm" }
    },
    {
      "type": "node",
      "id": 4203340162,
      "lat": -12.9344461,
      "lon": 45.1542178,
      "tags": {
        "addr:city": "Chirongui",
        "addr:postcode": "97620",
        "amenity": "fuel",
        "fuel:diesel": "yes",
        "fuel:octane_98": "yes",
        "name": "Station-services TotalEnergies Chirongui",
        "opening_hours": "closed \"looks closed for reconstruction. pumps removed\"",
        "operator": "TOTAL"
      }
    },
    {
      "type": "node",
      "id": 4203340164,
      "lat": -12.9309487,
      "lon": 45.1529273,
      "tags": {
        "amenity": "atm",
        "currency:EUR": "yes",
        "drive_through": "yes",
        "name": "BFC",
        "operator": "BFC"
      }
    },
    {
      "type": "node",
      "id": 4203340223,
      "lat": -12.9298353,
      "lon": 45.1532268,
      "tags": {
        "addr:city": "Mramadoudou",
        "addr:postcode": "97620",
        "amenity": "doctors",
        "name": "Cabinet M\u00e9dical Sud",
        "phone": "+262 2 69 62 55 55",
        "website": "https://www.reseaux-sante-mayotte.fr/entreprise/maillard-xavier"
      }
    },
    {
      "type": "node",
      "id": 4203483776,
      "lat": -12.9399432,
      "lon": 45.1366674,
      "tags": {
        "addr:city": "Tsimkoura",
        "addr:postcode": "97620",
        "addr:street": "Rue des Amoureux",
        "name": "Banga Magique \"BAO\"",
        "operator": "BAO",
        "tourism": "yes"
      }
    },
    {
      "type": "node",
      "id": 4204493689,
      "lat": -12.7784296,
      "lon": 45.2322564,
      "tags": { "amenity": "bar", "name": "Bar 5/5" }
    },
    {
      "type": "node",
      "id": 4215017590,
      "lat": -12.7821211,
      "lon": 45.2305465,
      "tags": {
        "addr:street": "Boulevard Halidi Selemani",
        "name": "Librairie Musulmane de Mayotte",
        "shop": "books",
        "source": "Kaart Ground Survey 2017"
      }
    },
    {
      "type": "node",
      "id": 4227081307,
      "lat": -12.9606887,
      "lon": 45.1005308,
      "tags": {
        "addr:housenumber": "2",
        "addr:postcode": "97625",
        "addr:street": "Mronie Babani Safi",
        "amenity": "restaurant",
        "capacity": "30",
        "cuisine": "regional",
        "email": "citronnel.kani@gmail.com",
        "name": "La Citronelle",
        "opening_hours": "Sa-Th 12:00-15:00",
        "phone": "0639659361",
        "smoking": "outside"
      }
    },
    {
      "type": "node",
      "id": 4227091288,
      "lat": -12.9592097,
      "lon": 45.1032098,
      "tags": {
        "addr:city": "Kani-Keli",
        "amenity": "restaurant",
        "cuisine": "pizza",
        "name": "Mon ile"
      }
    },
    {
      "type": "node",
      "id": 4227096227,
      "lat": -12.8342641,
      "lon": 45.1369908,
      "tags": {
        "addr:postcode": "97670",
        "addr:street": "Route Nationale 2",
        "amenity": "marketplace",
        "email": "legta.mayotte@educagri.fr",
        "name": "March\u00e9 de Coconi",
        "name:en": "Coconi farmer market",
        "opening_hours": "Sa[1] 08:00-13:00",
        "operator": "LEGTA Coconi",
        "phone": "0269621779"
      }
    },
    {
      "type": "node",
      "id": 4234293930,
      "lat": -12.9264335,
      "lon": 45.1042057,
      "tags": {
        "addr:city": "Mzouazia",
        "addr:street": "Boulevard de la R\u00e9publique",
        "ele": "21",
        "name": "Douka B\u00e9",
        "shop": "supermarket",
        "wheelchair": "yes"
      }
    },
    {
      "type": "node",
      "id": 4234321202,
      "lat": -12.9259452,
      "lon": 45.1042922,
      "tags": {
        "addr:city": "Mzouazia",
        "addr:street": "Boulevard de la R\u00e9publique",
        "name": "Mus\u00e9e de l'artisana",
        "tourism": "museum"
      }
    },
    {
      "type": "node",
      "id": 4239674490,
      "lat": -12.9339296,
      "lon": 45.1508336,
      "tags": {
        "addr:city": "Chirongui",
        "addr:street": "N3",
        "name": "Boulangerie",
        "operator": "Titi-Amoro",
        "shop": "bakery"
      }
    },
    {
      "type": "node",
      "id": 4241083907,
      "lat": -12.7797363,
      "lon": 45.2250966,
      "tags": { "amenity": "atm" }
    },
    {
      "type": "node",
      "id": 4246046122,
      "lat": -12.7922279,
      "lon": 45.2802469,
      "tags": { "amenity": "restaurant", "name": "Mistik Bar" }
    },
    {
      "type": "node",
      "id": 4310122728,
      "lat": -12.8025792,
      "lon": 45.2827791,
      "tags": {
        "information": "office",
        "name": "Comit\u00e9 du Tourisme",
        "tourism": "information"
      }
    },
    {
      "type": "node",
      "id": 4310122733,
      "lat": -12.8026793,
      "lon": 45.2828308,
      "tags": { "name": "Boutik'Air", "shop": "gift" }
    },
    {
      "type": "node",
      "id": 4310122736,
      "lat": -12.8029957,
      "lon": 45.2829775,
      "tags": { "amenity": "restaurant" }
    },
    {
      "type": "node",
      "id": 4352227875,
      "lat": -12.7348138,
      "lon": 45.1629418,
      "tags": { "amenity": "place_of_worship", "religion": "muslim" }
    },
    {
      "type": "node",
      "id": 4382643974,
      "lat": -12.9362242,
      "lon": 45.1500849,
      "tags": {
        "addr:city": "Chirongui",
        "addr:postcode": "97620",
        "addr:street": "Place de l'H\u00f4tel-de-Ville",
        "amenity": "townhall",
        "email": "dgs.chirongui@gmail.com",
        "name": "Mairie de Chirongui",
        "opening_hours": "Mo-Th 07:30-12:00,13:30-16:30; Fr 07:30-11:00",
        "phone": "0269 62 18 03"
      }
    },
    {
      "type": "node",
      "id": 4382679024,
      "lat": -12.9356162,
      "lon": 45.1493221,
      "tags": {
        "addr:city": "Chirongui",
        "addr:housenumber": "425",
        "addr:postcode": "97620",
        "addr:street": "Avenue Sa\u00efd VITTA",
        "amenity": "arts_centre",
        "name": "P\u00f4le Culturel Abaine Madi DZOUZOU"
      }
    },
    {
      "type": "node",
      "id": 4382679026,
      "lat": -12.9352338,
      "lon": 45.1496473,
      "tags": { "name": "Douka B\u00e9", "shop": "supermarket" }
    },
    {
      "type": "node",
      "id": 4382696330,
      "lat": -12.9338242,
      "lon": 45.1509587,
      "tags": {
        "amenity": "place_of_worship",
        "name": "Ancienne Mosqu\u00e9e de Vendredi",
        "name:ar": "\u0645\u0633\u062c\u062f \u0627\u0644\u062c\u0645\u0639\u0629 \u0627\u0644\u0642\u062f\u064a\u0645",
        "religion": "muslim"
      }
    },
    {
      "type": "node",
      "id": 4382696332,
      "lat": -12.932872,
      "lon": 45.1514379,
      "tags": { "name": "Mme Anziz (Souffou Sophiata)", "shop": "convenience" }
    },
    {
      "type": "node",
      "id": 4430464696,
      "lat": -12.9840693,
      "lon": 45.1094428,
      "tags": {
        "covered": "yes",
        "leisure": "picnic_table",
        "tourism": "picnic_site"
      }
    },
    {
      "type": "node",
      "id": 4430466695,
      "lat": -12.958974,
      "lon": 45.0844833,
      "tags": { "tourism": "picnic_site" }
    },
    {
      "type": "node",
      "id": 4430466993,
      "lat": -12.9760777,
      "lon": 45.1957882,
      "tags": { "tourism": "picnic_site" }
    },
    {
      "type": "node",
      "id": 4430505489,
      "lat": -12.9654573,
      "lon": 45.0910123,
      "tags": { "tourism": "picnic_site" }
    },
    {
      "type": "node",
      "id": 4430505589,
      "lat": -12.960113,
      "lon": 45.1728077,
      "tags": { "shop": "supermarket" }
    },
    {
      "type": "node",
      "id": 4432213690,
      "lat": -12.7925885,
      "lon": 45.2816909,
      "tags": {
        "addr:housenumber": "27",
        "addr:street": "rue de la biblioth\u00e8que",
        "email": "lezalifat@orange.fr",
        "name": "Le Zalifat",
        "phone": "0269601270",
        "tourism": "guest_house"
      }
    },
    {
      "type": "node",
      "id": 4486182793,
      "lat": -12.7789061,
      "lon": 45.2310512,
      "tags": { "name": "Air Austral", "shop": "travel_agency" }
    },
    {
      "type": "node",
      "id": 4489610769,
      "lat": -12.7782079,
      "lon": 45.2250214,
      "tags": {
        "amenity": "studio",
        "name": "Kw\u00e9zi TV",
        "studio": "television",
        "website": "http://www.linfokwezi.fr"
      }
    },
    {
      "type": "node",
      "id": 4621289409,
      "lat": -12.760249,
      "lon": 45.2263587,
      "tags": { "name": "TECMA", "shop": "motorcycle" }
    },
    {
      "type": "node",
      "id": 4621302313,
      "lat": -12.7643053,
      "lon": 45.2259463,
      "tags": {
        "addr:city": "Mamoudzou",
        "addr:postcode": "97600",
        "addr:street": "Rond-Point ZI Nel",
        "name": "Kagna Maor\u00e9",
        "opening_hours": "Tu-Sa 08:00-16:00",
        "operator": "Ucoopam 976",
        "payment:cards": "yes",
        "payment:cash": "yes",
        "payment:contactless": "yes",
        "payment:credit_cards": "yes",
        "payment:mastercard": "yes",
        "payment:visa": "yes",
        "payment:visa_electron": "yes",
        "shop": "greengrocer"
      }
    },
    {
      "type": "node",
      "id": 4621302314,
      "lat": -12.7643149,
      "lon": 45.2251478,
      "tags": { "amenity": "place_of_worship", "religion": "muslim" }
    },
    {
      "type": "node",
      "id": 4623090089,
      "lat": -12.8381124,
      "lon": 45.1304951,
      "tags": {
        "name": "Boulangerie M'Kouboi",
        "shop": "bakery",
        "survey:date": "2021-03-27"
      }
    },
    {
      "type": "node",
      "id": 4623090189,
      "lat": -12.8336336,
      "lon": 45.1325708,
      "tags": {
        "addr:city": "Coconi",
        "addr:housenumber": "2",
        "addr:postcode": "97670",
        "addr:street": "Route Nationale 2",
        "amenity": "post_office",
        "atm": "separate",
        "brand": "La Poste",
        "brand:wikidata": "Q373724",
        "brand:wikipedia": "fr:La Poste (entreprise fran\u00e7aise)",
        "name": "La Poste Coconi",
        "name:fr": "La Poste Coconi",
        "opening_hours": "Mo-Fr 08:00-12:00,14:00-16:00; Sa 08:00-12:00; PH off; 2021 Dec 31 08:00-12:00; 2022 Feb 28 off",
        "operator": "La Poste",
        "operator:wikidata": "Q373724",
        "operator:wikipedia": "fr:La Poste (entreprise fran\u00e7aise)",
        "ref:FR:LaPoste": "17899A",
        "survey:date": "2017",
        "wheelchair": "yes"
      }
    },
    {
      "type": "node",
      "id": 4623090791,
      "lat": -12.8290879,
      "lon": 45.127807,
      "tags": {
        "name": "AB Pneumatiques",
        "name:fr": "AB Pneumatiques",
        "shop": "car_repair"
      }
    },
    {
      "type": "node",
      "id": 4623094089,
      "lat": -12.8370674,
      "lon": 45.1306363,
      "tags": {
        "amenity": "fast_food",
        "email": "brksnack@gmail.com",
        "name": "BRK Snak",
        "name:fr": "BRK Snak",
        "phone": "0269 66 07 02",
        "website": "https://www.facebook.com/brksnack/"
      }
    },
    {
      "type": "node",
      "id": 4623704396,
      "lat": -12.8504766,
      "lon": 45.0991578,
      "tags": {
        "addr:postcode": "97640",
        "amenity": "post_office",
        "atm": "yes",
        "brand": "La Poste",
        "name": "La Poste",
        "opening_hours": "Mo-Fr 08:00-12:00,14:00-16:00; Sa 08:00-12:00; PH off; 2021 Dec 31 08:00-12:00; 2022 Feb 28 off",
        "operator": "La Poste",
        "operator:wikidata": "Q373724",
        "operator:wikipedia": "fr:La Poste (entreprise fran\u00e7aise)",
        "ref:FR:LaPoste": "17902A",
        "wheelchair": "yes"
      }
    },
    {
      "type": "node",
      "id": 4623772189,
      "lat": -12.8487247,
      "lon": 45.0999197,
      "tags": {
        "name": "March\u00e9 soleil",
        "name:fr": "March\u00e9 soleil",
        "shop": "convenience"
      }
    },
    {
      "type": "node",
      "id": 4623801696,
      "lat": -12.8505487,
      "lon": 45.0990659,
      "tags": {
        "addr:city": "Sada",
        "addr:postcode": "97640",
        "addr:street": "Route nationale 2",
        "amenity": "pharmacy",
        "dispensing": "yes",
        "email": "pharmacie-karibu@hotmail.fr",
        "fax": "+262 269 61 29 50",
        "healthcare": "pharmacy",
        "mapillary": "kSbvV7WXmVnz_Jy1uMoZ5Q",
        "name": "Pharmacie Karibou",
        "opening_hours": "Mo-Fr 08:00-12:30,14:00-18:30; Sa 08:00-12:30",
        "operator": "TAPESAR Shankar",
        "phone": "+262 269 80 75 97",
        "ref:FR:FINESS": "980501001",
        "ref:FR:SIRET": "80018141400015",
        "source": "Le minist\u00e8re des solidarit\u00e9s et de la sant\u00e9 - 03/2019",
        "type:FR:FINESS": "620",
        "website": "https://www.reseaux-sante-mayotte.fr/entreprise/pharmacie-karibu"
      }
    },
    {
      "type": "node",
      "id": 4623807397,
      "lat": -12.8395976,
      "lon": 45.1306897,
      "tags": {
        "addr:street": "Rue de la Convalescence",
        "name": "Anliati Boco",
        "name:fr": "Anliati Boco",
        "shop": "convenience",
        "source": "Kaart Ground Survey 2017"
      }
    },
    {
      "type": "node",
      "id": 4623812892,
      "lat": -12.8392629,
      "lon": 45.1299864,
      "tags": {
        "name": "Dada shop",
        "name:fr": "Dada shop",
        "shop": "convenience"
      }
    },
    {
      "type": "node",
      "id": 4623812893,
      "lat": -12.8480656,
      "lon": 45.1378562,
      "tags": {
        "diet:halal": "yes",
        "name": "May Halal",
        "shop": "supermarket"
      }
    },
    {
      "type": "node",
      "id": 4623823589,
      "lat": -12.8507769,
      "lon": 45.0988148,
      "tags": {
        "name": "Au Croustillant",
        "name:fr": "Au Croustillant",
        "phone": "0269622952",
        "shop": "bakery"
      }
    },
    {
      "type": "node",
      "id": 4623944489,
      "lat": -12.8401367,
      "lon": 45.1216006,
      "tags": {
        "name": "Sodicash",
        "name:fr": "Sodicash",
        "opening_hours": "Mo-Sa 07:30-18:45; Su 08:00-11:45",
        "shop": "supermarket"
      }
    },
    {
      "type": "node",
      "id": 4624064391,
      "lat": -12.8397237,
      "lon": 45.1312281,
      "tags": {
        "name": "Chahalani",
        "name:fr": "Chahalani",
        "shop": "convenience"
      }
    },
    {
      "type": "node",
      "id": 4624064392,
      "lat": -12.8380197,
      "lon": 45.130686,
      "tags": {
        "name": "Douka",
        "shop": "convenience",
        "source": "survey",
        "survey:date": "2021-12-05"
      }
    },
    {
      "type": "node",
      "id": 4624069590,
      "lat": -12.8346751,
      "lon": 45.1317403,
      "tags": {
        "addr:housenumber": "2",
        "name": "Kavou Kayvo",
        "name:fr": "Kavou Kaivo",
        "shop": "convenience"
      }
    },
    {
      "type": "node",
      "id": 4624069593,
      "lat": -12.8371456,
      "lon": 45.130435,
      "tags": {
        "name": "Douka",
        "shop": "convenience",
        "source": "survey",
        "survey:date": "2021-12-05"
      }
    },
    {
      "type": "node",
      "id": 4624069594,
      "lat": -12.8363176,
      "lon": 45.1325753,
      "tags": { "name": "Douka", "shop": "convenience" }
    },
    {
      "type": "node",
      "id": 4624071792,
      "lat": -12.8396546,
      "lon": 45.1320258,
      "tags": { "shop": "convenience" }
    },
    {
      "type": "node",
      "id": 4624071793,
      "lat": -12.8391701,
      "lon": 45.1331704,
      "tags": { "shop": "convenience" }
    },
    {
      "type": "node",
      "id": 4624072093,
      "lat": -12.8395501,
      "lon": 45.1310624,
      "tags": {
        "name": "Ma zalia",
        "name:fr": "Ma zalia",
        "shop": "convenience"
      }
    },
    {
      "type": "node",
      "id": 4624085589,
      "lat": -12.8381281,
      "lon": 45.1298182,
      "tags": { "shop": "convenience" }
    },
    {
      "type": "node",
      "id": 4624085590,
      "lat": -12.8379855,
      "lon": 45.1310991,
      "tags": { "shop": "convenience" }
    },
    {
      "type": "node",
      "id": 4624471691,
      "lat": -12.8369568,
      "lon": 45.1309753,
      "tags": {
        "name": "Douka",
        "shop": "convenience",
        "source": "survey",
        "survey:date": "2021-12-05"
      }
    },
    {
      "type": "node",
      "id": 4624472591,
      "lat": -12.839547,
      "lon": 45.1305322,
      "tags": {
        "amenity": "internet_cafe",
        "name": "YMEDIAT",
        "phone": "0639097354",
        "survey:date": "2021-09-16",
        "wheelchair": "limited"
      }
    },
    {
      "type": "node",
      "id": 4624484489,
      "lat": -12.8351121,
      "lon": 45.1319176,
      "tags": { "name": "Douka", "shop": "convenience", "source": "survey" }
    },
    {
      "type": "node",
      "id": 4624484590,
      "lat": -12.8384172,
      "lon": 45.1314803,
      "tags": { "shop": "hardware" }
    },
    {
      "type": "node",
      "id": 4624522690,
      "lat": -12.8077671,
      "lon": 45.2045063,
      "tags": { "name": "Somaco", "name:fr": "Somaco", "shop": "convenience" }
    },
    {
      "type": "node",
      "id": 4624522691,
      "lat": -12.8072047,
      "lon": 45.2063921,
      "tags": {
        "name": "Boulangerie au Quartier du Pain",
        "name:fr": "Boulangerie au Quartier du Pain",
        "shop": "bakery"
      }
    },
    {
      "type": "node",
      "id": 4624565690,
      "lat": -12.7863803,
      "lon": 45.2253471,
      "tags": {
        "amenity": "car_rental",
        "name": "Locar",
        "name:fr": "Locar",
        "phone": "0639698080"
      }
    },
    {
      "type": "node",
      "id": 4624572389,
      "lat": -12.8075744,
      "lon": 45.2047346,
      "tags": {
        "name": "Boulangerie Baraka",
        "name:fr": "Boulangerie Baraka",
        "shop": "bakery"
      }
    },
    {
      "type": "node",
      "id": 4624572390,
      "lat": -12.80039,
      "lon": 45.215132,
      "tags": {
        "name": "Douka-be",
        "name:fr": "Douka-be",
        "shop": "supermarket"
      }
    },
    {
      "type": "node",
      "id": 4624595889,
      "lat": -12.7969717,
      "lon": 45.2155969,
      "tags": { "name": "Bawali", "name:fr": "Bawali", "shop": "car" }
    },
    {
      "type": "node",
      "id": 4624595989,
      "lat": -12.7771258,
      "lon": 45.2317769,
      "tags": {
        "addr:street": "Boulevard Mawana-Madi",
        "name": "Ladiva",
        "name:fr": "Ladiva",
        "shop": "clothes",
        "source": "Kaart Ground Survey 2017"
      }
    },
    {
      "type": "node",
      "id": 4627570991,
      "lat": -12.8320367,
      "lon": 45.1384717,
      "tags": {
        "amenity": "restaurant",
        "name": "Gaboussi caf\u00e9",
        "name:fr": "Le gaboussi caf\u00e9",
        "opening_hours": "Mo-Sa 09:00-20:00",
        "phone": "0639653295",
        "survey:date": "2021-12-26",
        "wheelchair": "no"
      }
    },
    {
      "type": "node",
      "id": 4627616389,
      "lat": -12.8371833,
      "lon": 45.1571246,
      "tags": {
        "name": "Chambre d'h\u00f4tes",
        "name:fr": "Chambre d'h\u00f4tes",
        "tourism": "guest_house"
      }
    },
    {
      "type": "node",
      "id": 4627620890,
      "lat": -12.8386492,
      "lon": 45.1286718,
      "tags": { "amenity": "bus_station", "name": "Taxi", "name:fr": "Taxi" }
    },
    {
      "type": "node",
      "id": 4627620892,
      "lat": -12.840566,
      "lon": 45.1217638,
      "tags": {
        "addr:street": "Route Nationale 2",
        "name": "EMCA",
        "shop": "hardware",
        "source": "Kaart Ground Survey 2017"
      }
    },
    {
      "type": "node",
      "id": 4627621291,
      "lat": -12.8368229,
      "lon": 45.1593347,
      "tags": { "amenity": "bus_station", "name": "Taxi", "name:fr": "Taxi" }
    },
    {
      "type": "node",
      "id": 4627621293,
      "lat": -12.8477541,
      "lon": 45.1378271,
      "tags": { "shop": "convenience" }
    },
    {
      "type": "node",
      "id": 4627625690,
      "lat": -12.8348597,
      "lon": 45.1314694,
      "tags": {
        "amenity": "bus_station",
        "bus": "yes",
        "name": "Taxi",
        "name:fr": "Taxi",
        "public_transport": "station"
      }
    },
    {
      "type": "node",
      "id": 4627625693,
      "lat": -12.8411194,
      "lon": 45.1209816,
      "tags": {
        "addr:city": "Sada",
        "addr:postcode": "97640",
        "addr:street": "Route Nationale 2",
        "alt_name": "Pharmacie de L\u2019Ile",
        "amenity": "pharmacy",
        "dispensing": "yes",
        "email": "pharmacie.du.souimanga@outlook.fr",
        "fax": "+262 2 69 61 60 15",
        "mapillary": "ehShfjuAsE0mZti0ux4c0g",
        "name": "Pharmacie du Souimanga",
        "opening_hours": "Mo-Fr 07:30-12:30,14:30-18:30; Sa 07:30-12:30",
        "operator": "Nicolas Broquaire",
        "phone": "+262 2 69 61 60 14",
        "ref:FR:FINESS": "980500409",
        "ref:FR:SIRET": "50403907400019",
        "source": "Le minist\u00e8re des solidarit\u00e9s et de la sant\u00e9 - 03/2019",
        "type:FR:FINESS": "620",
        "website": "https://pharmaciedusouimanga.pharminfo.fr/"
      }
    },
    {
      "type": "node",
      "id": 4627626489,
      "lat": -12.8493423,
      "lon": 45.1377561,
      "tags": { "shop": "convenience" }
    },
    {
      "type": "node",
      "id": 4641578590,
      "lat": -12.8329845,
      "lon": 45.1148964,
      "tags": { "name": "Somaco", "name:fr": "Somaco", "shop": "supermarket" }
    },
    {
      "type": "node",
      "id": 4641578591,
      "lat": -12.8333586,
      "lon": 45.1141201,
      "tags": { "shop": "hardware" }
    },
    {
      "type": "node",
      "id": 4641597189,
      "lat": -12.8334732,
      "lon": 45.1142833,
      "tags": { "shop": "bakery" }
    },
    {
      "type": "node",
      "id": 4641597190,
      "lat": -12.8310631,
      "lon": 45.1135612,
      "tags": { "name": "Souwa", "name:fr": "Souwa", "shop": "convenience" }
    },
    {
      "type": "node",
      "id": 4647056690,
      "lat": -12.7705039,
      "lon": 45.2241099,
      "tags": {
        "name": "SMCI",
        "name:fr": "Smci",
        "opening_hours": "Mo-Fr 07:00-12:00,13:00-16:00; Sa 07:30-12:00",
        "shop": "car_repair"
      }
    },
    {
      "type": "node",
      "id": 4647067891,
      "lat": -12.7615207,
      "lon": 45.2264091,
      "tags": {
        "amenity": "bar",
        "name": "City Snack 101",
        "name:fr": "City Snack 101"
      }
    },
    {
      "type": "node",
      "id": 4647101191,
      "lat": -12.7623644,
      "lon": 45.2269662,
      "tags": {
        "amenity": "courthouse",
        "name": "Tribunal de Grande Instance de Mamoudzou",
        "name:fr": "Tribunal de Grande Instance de Mamoudzou"
      }
    },
    {
      "type": "node",
      "id": 4652633441,
      "lat": -12.7794289,
      "lon": 45.2273324,
      "tags": {
        "amenity": "restaurant",
        "name": "Restaurant d'Application L'eau Vive",
        "office": "research"
      }
    },
    {
      "type": "node",
      "id": 4663114294,
      "lat": -12.8460967,
      "lon": 45.1158125,
      "tags": {
        "amenity": "townhall",
        "name": "Mairie Annexe de Sada",
        "name:fr": "Mairie Annexe de Sada"
      }
    },
    {
      "type": "node",
      "id": 4663114295,
      "lat": -12.8373371,
      "lon": 45.1304826,
      "tags": {
        "name": "Menuiserie Boli",
        "name:fr": "Menuiserie Boli",
        "shop": "hardware"
      }
    },
    {
      "type": "node",
      "id": 4663123895,
      "lat": -12.8344021,
      "lon": 45.131713,
      "tags": {
        "name": "Menuiserie",
        "name:fr": "Menuiserie",
        "shop": "hardware"
      }
    },
    {
      "type": "node",
      "id": 4663123999,
      "lat": -12.8284678,
      "lon": 45.129484,
      "tags": {
        "name": "D\u00e9p\u00f4t BTP",
        "name:fr": "D\u00e9p\u00f4t BTP",
        "shop": "hardware"
      }
    },
    {
      "type": "node",
      "id": 4663166089,
      "lat": -12.8385917,
      "lon": 45.1302243,
      "tags": {
        "name": "Salim m\u00e9tallurgie",
        "name:fr": "Salim m\u00e9tallurgie",
        "shop": "hardware"
      }
    },
    {
      "type": "node",
      "id": 4702948689,
      "lat": -12.7904161,
      "lon": 45.13416,
      "tags": {
        "addr:city": "Tsingoni",
        "addr:postcode": "97680",
        "addr:street": "Rue \u00c9cole Primaire",
        "amenity": "doctors",
        "healthcare": "doctor",
        "name": "Maison m\u00e9dicale de Combani",
        "name:fr": "Maison m\u00e9dicale",
        "phone": "+262 2 69 61 77 38",
        "website": "https://www.reseaux-sante-mayotte.fr/entreprise/rasidimanana-eddie"
      }
    },
    {
      "type": "node",
      "id": 4702948690,
      "lat": -12.7699415,
      "lon": 45.2244923,
      "tags": {
        "addr:city": "Mamoudzou",
        "addr:postcode": "97600",
        "addr:street": "ZI Kaw\u00e9ni",
        "brand": "Midas",
        "brand:wikidata": "Q3312613",
        "brand:wikipedia": "en:Midas (automotive service)",
        "facebook": "https://www.facebook.com/MidasFr/",
        "name": "Midas",
        "name:fr": "Midas",
        "operator": "Midas",
        "phone": "0269 62 86 28",
        "shop": "car_repair",
        "website": "https://www.midas.fr/"
      }
    },
    {
      "type": "node",
      "id": 4712754714,
      "lat": -12.7656966,
      "lon": 45.228165,
      "tags": {
        "amenity": "courthouse",
        "name": "Chambre d'Appel de Mamoudzou",
        "name:fr": "Chambre d'Appel de Mamoudzou"
      }
    },
    {
      "type": "node",
      "id": 4733194229,
      "lat": -12.844353,
      "lon": 45.1028776,
      "tags": {
        "addr:street": "Rue du Bombajou",
        "amenity": "restaurant",
        "cuisine": "african;burger;chicken;fish;kebab",
        "internet_access": "no",
        "name": "Bomba Snack",
        "opening_hours": "Mo-Sa 10:00-14:30, 18:30-21:00",
        "outdoor_seating": "yes",
        "payment:cash": "yes",
        "payment:coins": "yes",
        "payment:contactless": "yes",
        "payment:credit_cards": "yes",
        "payment:debit_cards": "yes",
        "payment:notes": "yes",
        "phone": "+262 639 19 45 11",
        "takeaway": "yes",
        "toilets": "no",
        "wheelchair": "limited"
      }
    },
    {
      "type": "node",
      "id": 4733194230,
      "lat": -12.8451631,
      "lon": 45.1073584,
      "tags": {
        "amenity": "library",
        "name": "Biblioth\u00e8que municipale de Sada",
        "name:en": "Sada municipal library",
        "name:fr": "Biblioth\u00e8que municipale de sada",
        "opening_hours": "Tu-Fr 13:00-16:00; Sa 09:00-12:00",
        "phone": "0269615054"
      }
    },
    {
      "type": "node",
      "id": 4733206821,
      "lat": -12.8442359,
      "lon": 45.1093789,
      "tags": {
        "amenity": "place_of_worship",
        "denomination": "sunni",
        "name": "Mosqu\u00e9e",
        "religion": "muslim"
      }
    },
    {
      "type": "node",
      "id": 4737488821,
      "lat": -12.8324256,
      "lon": 45.1151547,
      "tags": {
        "amenity": "townhall",
        "name": "Mairie de Chiconi",
        "name:fr": "Mairie de Chiconi"
      }
    },
    {
      "type": "node",
      "id": 4739401022,
      "lat": -12.7740435,
      "lon": 45.2248948,
      "tags": {
        "amenity": "restaurant",
        "name": "Paris 13",
        "name:fr": "Paris 13"
      }
    },
    {
      "type": "node",
      "id": 4742619147,
      "lat": -12.7876252,
      "lon": 45.2188052,
      "tags": {
        "addr:city": "Mamoudzou",
        "addr:housenumber": "54",
        "addr:postcode": "97600",
        "addr:street": "Rue Mah\u00e9vantana",
        "name": "Douka Hallal",
        "shop": "supermarket"
      }
    },
    {
      "type": "node",
      "id": 4804386959,
      "lat": -12.7772457,
      "lon": 45.2334624,
      "tags": {
        "amenity": "restaurant",
        "name": "La Croisette",
        "opening_hours:covid19": "off"
      }
    },
    {
      "type": "node",
      "id": 4804387352,
      "lat": -12.7798606,
      "lon": 45.230517,
      "tags": { "amenity": "fast_food", "name": "Restaurant Kamtham" }
    },
    {
      "type": "node",
      "id": 4912342712,
      "lat": -12.751817,
      "lon": 45.054075,
      "tags": {
        "addr:street": "Rue du g\u00eete",
        "name": "G\u00eete de M'liha",
        "tourism": "chalet"
      }
    },
    {
      "type": "node",
      "id": 4912348816,
      "lat": -12.7488563,
      "lon": 45.0568421,
      "tags": {
        "addr:street": "Rue M'jimpia",
        "amenity": "restaurant",
        "name": "Le Napolie",
        "outdoor_seating": "yes"
      }
    },
    {
      "type": "node",
      "id": 4914932408,
      "lat": -12.7519566,
      "lon": 45.0540757,
      "tags": {
        "name": "Happy Divers centre de plong\u00e9e",
        "shop": "scuba_diving"
      }
    },
    {
      "type": "node",
      "id": 4980548036,
      "lat": -12.7888475,
      "lon": 45.2730179,
      "tags": {
        "addr:housenumber": "23",
        "addr:postcode": "97615",
        "addr:street": "Rue du Commerce",
        "amenity": "post_office",
        "atm": "yes",
        "brand": "La Poste",
        "name": "La Poste",
        "opening_hours": "Mo-Fr 08:00-12:00,13:30-16:00; Sa 08:00-12:00; PH off; 2021 Dec 31 08:00-12:00; 2022 Feb 28 off",
        "operator": "La Poste",
        "ref:FR:LaPoste": "17900A",
        "stamping_machine": "yes",
        "survey:date": "2017",
        "wheelchair": "yes"
      }
    },
    {
      "type": "node",
      "id": 4981065453,
      "lat": -12.786112,
      "lon": 45.2729885,
      "tags": {
        "addr:street": "Rue M'Dogo Oili",
        "name": "Magasin Des Zams",
        "shop": "beauty",
        "source": "Kaart Ground Survey 2017"
      }
    },
    {
      "type": "node",
      "id": 4981065461,
      "lat": -12.7886591,
      "lon": 45.2708056,
      "tags": {
        "addr:housenumber": "1",
        "addr:street": "Rue du Commerce",
        "name": "Chez Babou",
        "phone": "0269 60 11 78",
        "shop": "hardware",
        "source": "Kaart Ground Survey 2017"
      }
    },
    {
      "type": "node",
      "id": 4983466324,
      "lat": -12.7895115,
      "lon": 45.2716231,
      "tags": {
        "addr:street": "Rue du Dispensaire",
        "name": "Quincaillerie",
        "shop": "hardware",
        "source": "Kaart Ground Survey 2017"
      }
    },
    {
      "type": "node",
      "id": 4985198931,
      "lat": -12.7891603,
      "lon": 45.270086,
      "tags": {
        "addr:street": "Rue du Four \u00e0 Chaux",
        "name": "Mayotte Assistance",
        "shop": "yes",
        "source": "Kaart Ground Survey 2017"
      }
    },
    {
      "type": "node",
      "id": 4985528917,
      "lat": -12.800106,
      "lon": 45.2779017,
      "tags": {
        "name": "Bijouterie Joanna",
        "shop": "jewelry",
        "source": "Kaart Ground Survey 2017"
      }
    },
    {
      "type": "node",
      "id": 4991204199,
      "lat": -12.7368401,
      "lon": 45.2056034,
      "tags": {
        "amenity": "restaurant",
        "name": "Boulangerie Au Petit Pain De Koungou",
        "source": "Kaart Ground Survey 2017"
      }
    },
    {
      "type": "node",
      "id": 4991204200,
      "lat": -12.7355352,
      "lon": 45.2061921,
      "tags": {
        "addr:street": "Rue du Dispensaire",
        "name": "Boutique Bassoula",
        "shop": "convenience",
        "source": "Kaart Ground Survey 2017"
      }
    },
    {
      "type": "node",
      "id": 4991204201,
      "lat": -12.7369238,
      "lon": 45.2070119,
      "tags": {
        "addr:street": "N1",
        "name": "Boulangerie Anfiat",
        "shop": "convenience",
        "source": "Kaart Ground Survey 2017"
      }
    },
    {
      "type": "node",
      "id": 4991204204,
      "lat": -12.7370026,
      "lon": 45.2075212,
      "tags": {
        "addr:street": "N1",
        "name": "Ankiba",
        "shop": "yes",
        "source": "Kaart Ground Survey 2017"
      }
    },
    {
      "type": "node",
      "id": 4991204217,
      "lat": -12.7446235,
      "lon": 45.2179141,
      "tags": {
        "name": "Somaco",
        "shop": "convenience",
        "source": "Kaart Ground Survey 2017"
      }
    },
    {
      "type": "node",
      "id": 4991370967,
      "lat": -12.7459263,
      "lon": 45.2214579,
      "tags": {
        "addr:street": "Rue du Commerce",
        "name": "Boutique Anrifati Bacak",
        "shop": "boutique",
        "source": "Kaart Ground Survey 2017"
      }
    },
    {
      "type": "node",
      "id": 4991370969,
      "lat": -12.7578758,
      "lon": 45.2299257,
      "tags": {
        "name": "Sodifram",
        "shop": "supermarket",
        "source": "Kaart Ground Survey 2017"
      }
    },
    {
      "type": "node",
      "id": 4991390582,
      "lat": -12.7459675,
      "lon": 45.2211384,
      "tags": {
        "addr:street": "Rue du Commerce",
        "name": "Raky & Mohamed",
        "shop": "clothes",
        "source": "Kaart Ground Survey 2017"
      }
    },
    {
      "type": "node",
      "id": 4991390583,
      "lat": -12.7549236,
      "lon": 45.2303555,
      "tags": {
        "leisure": "spa",
        "name": "Ylang Esth\u00e9tique",
        "shop": "beauty",
        "source": "Kaart Ground Survey 2017"
      }
    },
    {
      "type": "node",
      "id": 4991390584,
      "lat": -12.7549799,
      "lon": 45.2303052,
      "tags": {
        "name": "Grain de Sucre",
        "shop": "confectionery",
        "source": "Kaart Ground Survey 2017"
      }
    },
    {
      "type": "node",
      "id": 4993093186,
      "lat": -12.7663077,
      "lon": 45.2289916,
      "tags": {
        "addr:street": "Route de la Zone Nel",
        "amenity": "post_office",
        "name": "Chronopost",
        "office": "company",
        "source": "Kaart Ground Survey 2017"
      }
    },
    {
      "type": "node",
      "id": 4993093194,
      "lat": -12.7662691,
      "lon": 45.2288105,
      "tags": {
        "addr:street": "Route de la Zone Nel",
        "name": "Dessus Dessous",
        "shop": "clothes",
        "source": "Kaart Ground Survey 2017"
      }
    },
    {
      "type": "node",
      "id": 4993093195,
      "lat": -12.7662992,
      "lon": 45.2289359,
      "tags": {
        "addr:street": "Route de la Zone Nel",
        "amenity": "cafe",
        "name": "SAV Coffee Mayotte",
        "source": "Kaart Ground Survey 2017"
      }
    },
    {
      "type": "node",
      "id": 4993093197,
      "lat": -12.7664149,
      "lon": 45.2293356,
      "tags": {
        "addr:street": "Route de la Zone Nel",
        "amenity": "restaurant",
        "name": "Mangrove",
        "source": "Kaart Ground Survey 2017"
      }
    },
    {
      "type": "node",
      "id": 4993339348,
      "lat": -12.8400084,
      "lon": 45.184511,
      "tags": {
        "name": "M\u00e9dicale de Mayotte",
        "shop": "yes",
        "source": "Kaart Ground Survey 2017"
      }
    },
    {
      "type": "node",
      "id": 4993377293,
      "lat": -12.8429048,
      "lon": 45.183667,
      "tags": {
        "name": "Daesa",
        "shop": "yes",
        "source": "Kaart Ground Survey 2017"
      }
    },
    {
      "type": "node",
      "id": 4993377298,
      "lat": -12.8435141,
      "lon": 45.1847817,
      "tags": {
        "amenity": "driving_school",
        "name": "Vahin\u00e9 Conduite",
        "office": "educational_institution",
        "source": "Kaart Ground Survey 2017"
      }
    },
    {
      "type": "node",
      "id": 4993377299,
      "lat": -12.8438904,
      "lon": 45.1863119,
      "tags": {
        "name": "Style Youmi",
        "shop": "yes",
        "source": "Kaart Ground Survey 2017"
      }
    },
    {
      "type": "node",
      "id": 4993466238,
      "lat": -12.7738328,
      "lon": 45.222675,
      "tags": {
        "name": "Plombelec",
        "shop": "hardware",
        "source": "Kaart Ground Survey 2017"
      }
    },
    {
      "type": "node",
      "id": 4993466239,
      "lat": -12.7736197,
      "lon": 45.2227554,
      "tags": {
        "amenity": "driving_school",
        "name": "D'Joumoi Auto\u00e9cole",
        "source": "Kaart Ground Survey 2017"
      }
    },
    {
      "type": "node",
      "id": 4993466241,
      "lat": -12.7732214,
      "lon": 45.2228822,
      "tags": {
        "amenity": "restaurant",
        "name": "Haraka Restaurant",
        "source": "Kaart Ground Survey 2017"
      }
    },
    {
      "type": "node",
      "id": 4993466242,
      "lat": -12.772485,
      "lon": 45.2250628,
      "tags": {
        "addr:street": "Avenue Martin Luther King",
        "amenity": "restaurant",
        "name": "Le Massal\u00e9",
        "source": "Kaart Ground Survey 2017"
      }
    },
    {
      "type": "node",
      "id": 4993466243,
      "lat": -12.7726054,
      "lon": 45.2250125,
      "tags": {
        "addr:street": "Avenue Martin Luther King",
        "name": "Papeterie de Mayotte",
        "shop": "clothes",
        "source": "Kaart Ground Survey 2017"
      }
    },
    {
      "type": "node",
      "id": 4993466246,
      "lat": -12.7728984,
      "lon": 45.2249877,
      "tags": {
        "addr:street": "Avenue Martin Luther King",
        "name": "Doma Sport",
        "shop": "sports",
        "source": "Kaart Ground Survey 2017"
      }
    },
    {
      "type": "node",
      "id": 4993466247,
      "lat": -12.775456,
      "lon": 45.2248194,
      "tags": {
        "addr:street": "Avenue Martin Luther King",
        "name": "TechStore",
        "shop": "electronics",
        "source": "Kaart Ground Survey 2017"
      }
    },
    {
      "type": "node",
      "id": 4993466249,
      "lat": -12.7758758,
      "lon": 45.2248302,
      "tags": {
        "addr:street": "Boulevard Mawana-Madi",
        "brand": "Alain Afflelou",
        "brand:wikidata": "Q2829511",
        "brand:wikipedia": "fr:Alain Afflelou (entreprise)",
        "name": "Alain Afflelou",
        "shop": "optician",
        "source": "Kaart Ground Survey 2017"
      }
    },
    {
      "type": "node",
      "id": 4993466251,
      "lat": -12.7755678,
      "lon": 45.2243172,
      "tags": {
        "addr:city": "Kaw\u00e9ni",
        "addr:postcode": "97600",
        "addr:street": "Immeuble Ylang Kaw\u00e9ni, BP739",
        "amenity": "pharmacy",
        "contact:facebook": "pharmaciedesylangs",
        "dispensing": "yes",
        "email": "contact@pharmaciedesylangs.com",
        "fax": "+262 2 69 61 37 66",
        "healthcare": "pharmacy",
        "mapillary": "TrOQU28rujT0oHo7fxRMTQ",
        "name": "Pharmacie des Ylangs",
        "note": "https://www.pharmacie-des-ylangs.fr/",
        "opening_hours": "Mo-Fr 07:30-13:00,14:00-19:00; Sa 07:30-13:00",
        "operator": "Pierre-Emmanuel ANCENYS",
        "phone": "+262 2 69 61 37 68",
        "ref:FR:FINESS": "980500359",
        "ref:FR:SIRET": "83438162600011",
        "source": "Kaart Ground Survey 2017",
        "website": "https://pharmaciedesylangs.pharminfo.fr"
      }
    },
    {
      "type": "node",
      "id": 4993466252,
      "lat": -12.7719146,
      "lon": 45.2235065,
      "tags": {
        "name": "Canal Plus Store",
        "shop": "yes",
        "source": "Kaart Ground Survey 2017"
      }
    },
    {
      "type": "node",
      "id": 4993466253,
      "lat": -12.7718226,
      "lon": 45.22354,
      "tags": {
        "name": "Kogi Home",
        "shop": "furniture",
        "source": "Kaart Ground Survey 2017"
      }
    },
    {
      "type": "node",
      "id": 4993466254,
      "lat": -12.7716074,
      "lon": 45.2235648,
      "tags": {
        "name": "Caribou B\u00e9b\u00e9",
        "phone": "02 69 60 26 19",
        "shop": "baby_goods",
        "source": "Kaart Ground Survey 2017"
      }
    },
    {
      "type": "node",
      "id": 4993466266,
      "lat": -12.7685626,
      "lon": 45.2261753,
      "tags": {
        "addr:street": "Avenue Martin Luther King",
        "amenity": "restaurant",
        "name": "Croc Minute",
        "source": "Kaart Ground Survey 2017"
      }
    },
    {
      "type": "node",
      "id": 4993466269,
      "lat": -12.7707667,
      "lon": 45.2253649,
      "tags": {
        "addr:street": "Avenue Martin Luther King",
        "name": "Casal Sport",
        "shop": "sports",
        "source": "Kaart Ground Survey 2017"
      }
    },
    {
      "type": "node",
      "id": 4993466270,
      "lat": -12.7709681,
      "lon": 45.2253149,
      "tags": {
        "addr:street": "Avenue Martin Luther King",
        "name": "Lutte Anti Nuisibles",
        "shop": "yes",
        "source": "Kaart Ground Survey 2017"
      }
    },
    {
      "type": "node",
      "id": 4993466282,
      "lat": -12.7756064,
      "lon": 45.2245599,
      "tags": {
        "addr:street": "Avenue Martin Luther King",
        "amenity": "bank",
        "brand": "Caisse d'\u00c9pargne",
        "brand:wikidata": "Q1547738",
        "brand:wikipedia": "fr:Caisse d'\u00e9pargne (banque)",
        "name": "Caisse d'\u00c9pargne",
        "operator": "Caisse d'\u00c9pargne",
        "source": "Kaart Ground Survey 2017"
      }
    },
    {
      "type": "node",
      "id": 4993599007,
      "lat": -12.7770287,
      "lon": 45.2317918,
      "tags": {
        "addr:street": "Boulevard Mawana-Madi",
        "name": "Diva Cosmetique",
        "shop": "beauty",
        "source": "Kaart Ground Survey 2017"
      }
    },
    {
      "type": "node",
      "id": 4993599008,
      "lat": -12.7769791,
      "lon": 45.2318012,
      "tags": {
        "addr:street": "Boulevard Mawana-Madi",
        "name": "Select Etoile",
        "shop": "clothes",
        "source": "Kaart Ground Survey 2017"
      }
    },
    {
      "type": "node",
      "id": 4993599019,
      "lat": -12.7799036,
      "lon": 45.2250957,
      "tags": {
        "addr:street": "Rue de l'Internat",
        "name": "Ma Chambre En Ville",
        "source": "Kaart Ground Survey 2017",
        "tourism": "guest_house",
        "website": "https://www.mcv-mayotte.fr/"
      }
    },
    {
      "type": "node",
      "id": 4993599020,
      "lat": -12.7779063,
      "lon": 45.2311494,
      "tags": {
        "addr:street": "Rue Mariaze",
        "name": "Badri Shop",
        "shop": "yes",
        "source": "Kaart Ground Survey 2017"
      }
    },
    {
      "type": "node",
      "id": 4993599323,
      "lat": -12.7755796,
      "lon": 45.2264408,
      "tags": {
        "addr:street": "Boulevard Mawana-Madi",
        "name": "Super Sport Mayotte",
        "shop": "sports",
        "source": "Kaart Ground Survey 2017"
      }
    },
    {
      "type": "node",
      "id": 4993599324,
      "lat": -12.775743,
      "lon": 45.2263952,
      "tags": {
        "addr:street": "Boulevard Mawana-Madi",
        "name": "Somaco Destockage",
        "shop": "furniture",
        "source": "Kaart Ground Survey 2017"
      }
    },
    {
      "type": "node",
      "id": 4993599326,
      "lat": -12.775641,
      "lon": 45.2256596,
      "tags": {
        "addr:street": "Boulevard Mawana-Madi",
        "name": "Sodicash",
        "shop": "convenience",
        "source": "Kaart Ground Survey 2017"
      }
    },
    {
      "type": "node",
      "id": 4995059786,
      "lat": -12.7892507,
      "lon": 45.2205983,
      "tags": {
        "addr:street": "Rue Mah\u00e9vantana",
        "name": "Labo Photo",
        "shop": "photo",
        "source": "Kaart Ground Survey 2017"
      }
    },
    {
      "type": "node",
      "id": 4995068818,
      "lat": -12.8000795,
      "lon": 45.215794,
      "tags": {
        "amenity": "taxi",
        "name": "Banga Taxi",
        "source": "Kaart Ground Survey 2017"
      }
    },
    {
      "type": "node",
      "id": 4995083595,
      "lat": -12.8060745,
      "lon": 45.2089409,
      "tags": {
        "name": "La boutique TotalEnergies",
        "shop": "convenience",
        "source": "BDOrtho IGN (2016) and survey"
      }
    },
    {
      "type": "node",
      "id": 4995089402,
      "lat": -12.8166059,
      "lon": 45.1989134,
      "tags": {
        "name": "Douka B\u00e9",
        "shop": "convenience",
        "source": "Kaart Ground Survey 2017"
      }
    },
    {
      "type": "node",
      "id": 4995118021,
      "lat": -12.7962128,
      "lon": 45.213531,
      "tags": {
        "name": "Magasin Djaoula",
        "shop": "convenience",
        "source": "Kaart Ground Survey 2017"
      }
    },
    {
      "type": "node",
      "id": 4995138751,
      "lat": -12.7846912,
      "lon": 45.2198704,
      "tags": {
        "addr:street": "Rue Baboussalama",
        "name": "Bravo Somaco",
        "shop": "convenience",
        "source": "Kaart Ground Survey 2017"
      }
    },
    {
      "type": "node",
      "id": 4995191281,
      "lat": -12.7865141,
      "lon": 45.225357,
      "tags": {
        "addr:street": "Boulevard Mawana-Madi",
        "name": "Quincaillerie de Mayotte",
        "shop": "hardware",
        "source": "Survey 2019"
      }
    },
    {
      "type": "node",
      "id": 4995193249,
      "lat": -12.77691,
      "lon": 45.2318143,
      "tags": {
        "addr:street": "Boulevard Mawana-Madi",
        "name": "Eden Fashion",
        "shop": "clothes",
        "source": "Kaart Ground Survey 2017"
      }
    },
    {
      "type": "node",
      "id": 4995193251,
      "lat": -12.7786365,
      "lon": 45.2319604,
      "tags": {
        "addr:street": "Boulevard Mawana-Madi",
        "name": "Copemay",
        "phone": "+33269611152",
        "shop": "seafood",
        "source": "Kaart Ground Survey 2017"
      }
    },
    {
      "type": "node",
      "id": 4995193252,
      "lat": -12.7804457,
      "lon": 45.2330669,
      "tags": {
        "addr:street": "Boulevard Mawana-Madi",
        "amenity": "restaurant",
        "name": "Art Culinaire Classic",
        "source": "Kaart Ground Survey 2017"
      }
    },
    {
      "type": "node",
      "id": 4995294139,
      "lat": -12.7885957,
      "lon": 45.2653341,
      "tags": {
        "addr:street": "Boulevard des Crabes",
        "name": "G\u00e9g\u00e9 off Paris",
        "shop": "yes",
        "source": "Kaart Ground Survey 2017"
      }
    },
    {
      "type": "node",
      "id": 4995323570,
      "lat": -12.8403167,
      "lon": 45.1213502,
      "tags": {
        "name": "Sodena Eurl",
        "shop": "yes",
        "source": "Kaart Ground Survey 2017"
      }
    },
    {
      "type": "node",
      "id": 4995323588,
      "lat": -12.8377766,
      "lon": 45.1175853,
      "tags": {
        "name": "Deasa",
        "shop": "yes",
        "source": "Kaart Ground Survey 2017"
      }
    },
    {
      "type": "node",
      "id": 4995323596,
      "lat": -12.8364402,
      "lon": 45.1149255,
      "tags": {
        "amenity": "restaurant",
        "name": "Restaurant L'Escale",
        "source": "Kaart Ground Survey 2017"
      }
    },
    {
      "type": "node",
      "id": 4995328984,
      "lat": -12.8333857,
      "lon": 45.114017,
      "tags": {
        "name": "Tadjidine Boina",
        "shop": "yes",
        "source": "Kaart Ground Survey 2017"
      }
    },
    {
      "type": "node",
      "id": 4995329893,
      "lat": -12.800152,
      "lon": 45.2766419,
      "tags": {
        "addr:street": "Ruelle Georges Nahouda",
        "name": "\u00c9picerie Ancien Stade",
        "shop": "convenience",
        "source": "Kaart Ground Survey 2017"
      }
    },
    {
      "type": "node",
      "id": 4995343640,
      "lat": -12.8331906,
      "lon": 45.1151892,
      "tags": {
        "name": "Chich Pieces Auto",
        "shop": "car_parts",
        "source": "Kaart Ground Survey 2017"
      }
    },
    {
      "type": "node",
      "id": 4995372870,
      "lat": -12.8474947,
      "lon": 45.1037082,
      "tags": {
        "name": "Came",
        "shop": "electronics",
        "source": "Kaart Ground Survey 2017"
      }
    },
    {
      "type": "node",
      "id": 4995478176,
      "lat": -12.7800584,
      "lon": 45.2289695,
      "tags": {
        "addr:street": "Rue du Cin\u00e9ma Alpajoe",
        "name": "El\u00e9gance",
        "shop": "clothes",
        "source": "Kaart Ground Survey 2017"
      }
    },
    {
      "type": "node",
      "id": 4995478177,
      "lat": -12.7814919,
      "lon": 45.2294784,
      "tags": {
        "addr:street": "Rue Sa\u00efd Abdallah",
        "name": "Chez Faou",
        "shop": "convenience",
        "source": "Kaart Ground Survey 2017"
      }
    },
    {
      "type": "node",
      "id": 4995478179,
      "lat": -12.7827546,
      "lon": 45.2292477,
      "tags": {
        "addr:street": "Boulevard Halidi Selemani",
        "name": "Bravo Somaco",
        "shop": "clothes",
        "source": "Kaart Ground Survey 2017"
      }
    },
    {
      "type": "node",
      "id": 4995478180,
      "lat": -12.7825964,
      "lon": 45.2293503,
      "tags": {
        "addr:street": "Boulevard Halidi Selemani",
        "name": "E-Voyages",
        "shop": "travel_agency",
        "source": "Kaart Ground Survey 2017"
      }
    },
    {
      "type": "node",
      "id": 4995478182,
      "lat": -12.7814101,
      "lon": 45.2299377,
      "tags": {
        "addr:street": "Rue du Cin\u00e9ma Alpajoe",
        "name": "D\u00e9p\u00f4t Vente",
        "shop": "motorcycle",
        "source": "Kaart Ground Survey 2017"
      }
    },
    {
      "type": "node",
      "id": 4995478187,
      "lat": -12.7821419,
      "lon": 45.2306753,
      "tags": {
        "addr:street": "Boulevard Halidi Selemani",
        "name": "Look Beaut\u00e9",
        "shop": "clothes",
        "source": "Kaart Ground Survey 2017"
      }
    },
    {
      "type": "node",
      "id": 4995478203,
      "lat": -12.7808811,
      "lon": 45.228667,
      "tags": {
        "addr:street": "Rue Pasky Daka",
        "amenity": "cafe",
        "name": "Super Cafe",
        "source": "Kaart Ground Survey 2017"
      }
    },
    {
      "type": "node",
      "id": 4995478204,
      "lat": -12.7825879,
      "lon": 45.2299377,
      "tags": {
        "addr:street": "Boulevard Halidi Selemani",
        "name": "Fazod Style Mode",
        "shop": "clothes",
        "source": "Kaart Ground Survey 2017"
      }
    },
    {
      "type": "node",
      "id": 4995548536,
      "lat": -12.8479026,
      "lon": 45.1028395,
      "tags": {
        "addr:street": "Rue Boustoini Chanfi",
        "name": "HL& Co",
        "opening_hours": "Mo-Sa 09:00-18:00",
        "phone": "0269629142",
        "shop": "yes",
        "source": "Kaart Ground Survey 2017",
        "website": "https://www.hletco.com/"
      }
    },
    {
      "type": "node",
      "id": 4995548538,
      "lat": -12.8499245,
      "lon": 45.0992016,
      "tags": {
        "name": "Chez Nawa",
        "shop": "convenience",
        "source": "Kaart Ground Survey 2017"
      }
    },
    {
      "type": "node",
      "id": 4995548540,
      "lat": -12.8510999,
      "lon": 45.0986378,
      "tags": {
        "addr:street": "Rue Acacia Dispensaire",
        "amenity": "cafe",
        "name": "Caf\u00e9 Club",
        "source": "Kaart Ground Survey 2017"
      }
    },
    {
      "type": "node",
      "id": 4995548546,
      "lat": -12.8518074,
      "lon": 45.0989009,
      "tags": {
        "addr:street": "Rue Younoussa Bamana",
        "name": "Lib'Regard Cafe",
        "shop": "convenience",
        "source": "Kaart Ground Survey 2017"
      }
    },
    {
      "type": "node",
      "id": 4995552225,
      "lat": -12.7816246,
      "lon": 45.2301355,
      "tags": {
        "addr:street": "Rue du Cin\u00e9ma Alpajoe",
        "name": "Promo Flash",
        "shop": "photo",
        "source": "Kaart Ground Survey 2017"
      }
    },
    {
      "type": "node",
      "id": 4995552226,
      "lat": -12.7818143,
      "lon": 45.230102,
      "tags": {
        "addr:street": "Boulevard Halidi Selemani",
        "name": "Pourquoi Pas",
        "shop": "clothes",
        "source": "Kaart Ground Survey 2017"
      }
    },
    {
      "type": "node",
      "id": 4995558066,
      "lat": -12.8529134,
      "lon": 45.0951254,
      "tags": {
        "addr:street": "Rue du Lagon",
        "name": "Chez Kalatsa",
        "phone": "0639261922",
        "shop": "seafood",
        "source": "Kaart Ground Survey 2017"
      }
    },
    {
      "type": "node",
      "id": 4995647535,
      "lat": -12.8409158,
      "lon": 45.1220716,
      "tags": {
        "addr:city": "Chiconi",
        "addr:postcode": "97670",
        "addr:street": "Route Nationale 2",
        "amenity": "doctors",
        "healthcare": "midwife",
        "name": "Maison de sant\u00e9 Suha N'Djema",
        "opening_hours": "Mo-Tu, Th-Fr 07:00-14:00; Sa 07:00-12:00",
        "phone": "+262 2 69 62 28 99",
        "source": "Kaart Ground Survey 2017",
        "survey:date": "2021-09-26",
        "website": "https://www.reseaux-sante-mayotte.fr/entreprise/degoy-xavier"
      }
    },
    {
      "type": "node",
      "id": 4995647536,
      "lat": -12.8409247,
      "lon": 45.121887,
      "tags": {
        "addr:street": "Route Nationale 2",
        "healthcare": "physiotherapist",
        "name": "Les Kin\u00e9s du Sud",
        "source": "Kaart Ground Survey 2017",
        "survey:date": "2021-09-26"
      }
    },
    {
      "type": "node",
      "id": 4995647540,
      "lat": -12.8409116,
      "lon": 45.121802,
      "tags": {
        "addr:postcode": "97670",
        "addr:street": "Route Nationale 2",
        "name": "Auto-Pieces du Carrefour",
        "phone": "0639226154",
        "shop": "car_parts",
        "source": "Kaart Ground Survey 2017",
        "survey:date": "2021-09-26"
      }
    },
    {
      "type": "node",
      "id": 4995647541,
      "lat": -12.840705,
      "lon": 45.1220688,
      "tags": {
        "addr:street": "Route Nationale 2",
        "name": "Quincaillerie U Centre",
        "shop": "hardware",
        "source": "Kaart Ground Survey 2017",
        "survey:date": "2021-09-26"
      }
    },
    {
      "type": "node",
      "id": 4995705081,
      "lat": -12.8331215,
      "lon": 45.1139347,
      "tags": {
        "name": "Lassi a Bois",
        "shop": "hardware",
        "source": "Kaart Ground Survey 2017"
      }
    },
    {
      "type": "node",
      "id": 4995705082,
      "lat": -12.8330021,
      "lon": 45.1139273,
      "tags": {
        "name": "Shop for You",
        "shop": "yes",
        "source": "Kaart Ground Survey 2017"
      }
    },
    {
      "type": "node",
      "id": 4995715818,
      "lat": -12.7820058,
      "lon": 45.2333756,
      "tags": {
        "addr:street": "Rue M'Gombani",
        "name": "Nema",
        "shop": "convenience",
        "source": "Kaart Ground Survey 2017"
      }
    },
    {
      "type": "node",
      "id": 4995715820,
      "lat": -12.776827,
      "lon": 45.2303303,
      "tags": {
        "addr:street": "Rue Said Soimihi",
        "amenity": "bank",
        "brand": "Casden",
        "brand:wikidata": "Q2930976",
        "brand:wikipedia": "fr:CASDEN Banque populaire",
        "name": "Casden",
        "source": "Kaart Ground Survey 2017"
      }
    },
    {
      "type": "node",
      "id": 4995716522,
      "lat": -12.7818633,
      "lon": 45.2328895,
      "tags": {
        "addr:street": "Rue de M'Gombani",
        "name": "Boutique Idi Youssouf",
        "shop": "clothes",
        "source": "Kaart Ground Survey 2017"
      }
    },
    {
      "type": "node",
      "id": 4995716523,
      "lat": -12.7803324,
      "lon": 45.2313975,
      "tags": {
        "addr:street": "Rue Mamaw\u00e9",
        "name": "Mayotte Pare-Brise",
        "shop": "car_repair",
        "source": "Kaart Ground Survey 2017"
      }
    },
    {
      "type": "node",
      "id": 4995718206,
      "lat": -12.7769242,
      "lon": 45.2310326,
      "tags": {
        "addr:street": "Rue Said Soimihi",
        "name": "Air Madagascar",
        "shop": "travel_agency",
        "source": "Kaart Ground Survey 2017"
      }
    },
    {
      "type": "node",
      "id": 4995718207,
      "lat": -12.7769195,
      "lon": 45.2309996,
      "tags": {
        "addr:street": "Rue Said Soimihi",
        "name": "Rogers Aviation",
        "shop": "travel_agency",
        "source": "Kaart Ground Survey 2017"
      }
    },
    {
      "type": "node",
      "id": 4995718208,
      "lat": -12.7769111,
      "lon": 45.2309694,
      "tags": {
        "addr:street": "Rue Said Soimihi",
        "name": "Kenya Airways",
        "shop": "travel_agency",
        "source": "Kaart Ground Survey 2017"
      }
    },
    {
      "type": "node",
      "id": 4997476819,
      "lat": -12.7852411,
      "lon": 45.2776692,
      "tags": {
        "addr:street": "Rue de la Moya",
        "name": "Duartitr General Groupe",
        "shop": "yes",
        "source": "Kaart Ground Survey 2017"
      }
    },
    {
      "type": "node",
      "id": 4997515795,
      "lat": -12.8002536,
      "lon": 45.2785119,
      "tags": {
        "addr:street": "Rue Tsimana",
        "name": "M Douka",
        "shop": "convenience",
        "source": "Kaart Ground Survey 2017"
      }
    },
    {
      "type": "node",
      "id": 4997536736,
      "lat": -12.7863193,
      "lon": 45.2760414,
      "tags": {
        "name": "Magasin",
        "shop": "convenience",
        "source": "Kaart Ground Survey 2017"
      }
    },
    {
      "type": "node",
      "id": 4997536746,
      "lat": -12.7870331,
      "lon": 45.2735863,
      "tags": {
        "addr:street": "Rue Mariame Ali M'Raraya",
        "name": "D\u00e9co Graphiques",
        "shop": "yes",
        "source": "Kaart Ground Survey 2017"
      }
    },
    {
      "type": "node",
      "id": 4997536747,
      "lat": -12.7871564,
      "lon": 45.2733388,
      "tags": {
        "addr:street": "Rue Mariame Ali M'Raraya",
        "name": "Euro Prix",
        "shop": "yes",
        "source": "Kaart Ground Survey 2017"
      }
    },
    {
      "type": "node",
      "id": 4997536749,
      "lat": -12.7875963,
      "lon": 45.2726309,
      "tags": {
        "addr:street": "Rue L'h\u00f4tel de Ville",
        "name": "Nabouhane Fils",
        "shop": "convenience",
        "source": "Kaart Ground Survey 2017"
      }
    },
    {
      "type": "node",
      "id": 4997594902,
      "lat": -12.7884197,
      "lon": 45.2729587,
      "tags": {
        "addr:street": "Rue L'h\u00f4tel de Ville",
        "amenity": "social_facility",
        "name": "Caisse de S\u00e9curit\u00e9 Sociale de Mayotte",
        "source": "Kaart Ground Survey 2017"
      }
    },
    {
      "type": "node",
      "id": 4997594907,
      "lat": -12.7885598,
      "lon": 45.2729336,
      "tags": {
        "addr:street": "Rue L'h\u00f4tel de Ville",
        "name": "B Biard",
        "shop": "yes",
        "source": "Kaart Ground Survey 2017"
      }
    },
    {
      "type": "node",
      "id": 4997594908,
      "lat": -12.7886341,
      "lon": 45.272934,
      "tags": {
        "addr:street": "Rue L'h\u00f4tel de Ville",
        "name": "Orange",
        "shop": "mobile_phone",
        "source": "Kaart Ground Survey 2017"
      }
    },
    {
      "type": "node",
      "id": 4997594909,
      "lat": -12.788764,
      "lon": 45.2729228,
      "tags": {
        "addr:street": "Rue L'h\u00f4tel de Ville",
        "name": "Black Shop",
        "shop": "yes",
        "source": "Kaart Ground Survey 2017"
      }
    },
    {
      "type": "node",
      "id": 4998184448,
      "lat": -12.8375624,
      "lon": 45.1312574,
      "tags": {
        "addr:street": "Rue du Stade",
        "name": "Top Shop",
        "shop": "convenience",
        "source": "Kaart Ground Survey 2017",
        "survey:date": "2021-03-27"
      }
    },
    {
      "type": "node",
      "id": 5070391922,
      "lat": -12.7893288,
      "lon": 45.2768391,
      "tags": {
        "amenity": "fast_food",
        "cuisine": "pizza",
        "name": "Star Pizza Labattoir",
        "phone": "0639283412"
      }
    },
    {
      "type": "node",
      "id": 5070395922,
      "lat": -12.7989037,
      "lon": 45.2767852,
      "tags": {
        "addr:postcode": "97615",
        "amenity": "fast_food",
        "cuisine": "pizza",
        "name": "Star Pizza & K\u00e9bab",
        "opening_hours": "Mo-Su 12:00-23:00",
        "phone": "0639202102",
        "source": "Kaart Ground Survey 2017"
      }
    },
    {
      "type": "node",
      "id": 5070395923,
      "lat": -12.7892357,
      "lon": 45.1344797,
      "tags": {
        "addr:postcode": "97680",
        "addr:street": "rue Chef Ouss\u00e9ni",
        "email": "citysnack101@gmail.com",
        "name": "Auberge Le Tour du Monde",
        "phone": "0269627778",
        "tourism": "hotel"
      }
    },
    {
      "type": "node",
      "id": 5073253248,
      "lat": -12.8558381,
      "lon": 45.1031887,
      "tags": {
        "addr:city": "Sada",
        "addr:postcode": "97640",
        "addr:street": "Route d\u00e9partementale 5",
        "amenity": "clinic",
        "healthcare": "clinic",
        "healthcare:speciality": "paediatrics;community;general",
        "name": "Centre de consultations de Sada",
        "opening_hours": "Mo-Fr 07:00-14:00",
        "operator": "CHM",
        "operator:type": "public",
        "phone": "+262 2 69 62 11 15",
        "website": "https://www.reseaux-sante-mayotte.fr/entreprise/centre-de-consultation-sada"
      }
    },
    {
      "type": "node",
      "id": 5073275754,
      "lat": -12.7349142,
      "lon": 45.2068857,
      "tags": {
        "addr:city": "Koungou",
        "addr:postcode": "97690",
        "addr:street": "Rue M'd\u00e9r\u00e9 Soilihi",
        "amenity": "clinic",
        "name": "Centre de consultations de Koungou",
        "opening_hours": "Mo-Fr 07:00-14:00",
        "phone": "+262 2 69 62 01 77",
        "website": "https://www.reseaux-sante-mayotte.fr/entreprise/centre-de-consultation-de-kounguou"
      }
    },
    {
      "type": "node",
      "id": 5073322547,
      "lat": -12.7876962,
      "lon": 45.219535,
      "tags": {
        "addr:city": "Mamoudzou",
        "addr:postcode": "97600",
        "addr:street": "Rue Maevantana",
        "amenity": "clinic",
        "fixme": "Localisation dans la rue \u00e0 pr\u00e9ciser (pas de num\u00e9ro)",
        "name": "Centre de consultations de M'tsap\u00e9r\u00e9",
        "opening_hours": "Mo-Fr 07:00-14:00",
        "phone": "+262 2 69 61 80 00",
        "website": "https://www.reseaux-sante-mayotte.fr/entreprise/centre-de-consultation-de-m-tsapere"
      }
    },
    {
      "type": "node",
      "id": 5073346271,
      "lat": -12.8011729,
      "lon": 45.2081681,
      "tags": {
        "addr:city": "Passamainty",
        "addr:postcode": "97605",
        "addr:street": "Chemin d\u00e9partemental 3",
        "amenity": "clinic",
        "healthcare": "clinic",
        "name": "Centre de consultations de Passamainty",
        "opening_hours": "Mo-Fr 07:00-14:00",
        "phone": "+262 2 69 62 19 54",
        "website": "https://www.reseaux-sante-mayotte.fr/entreprise/centre-de-consultation-de-passamainty"
      }
    },
    {
      "type": "node",
      "id": 5073362898,
      "lat": -12.7914345,
      "lon": 45.2718007,
      "tags": {
        "addr:city": "Dzaoudzi",
        "addr:postcode": "97610",
        "addr:street": "Rue du Dispensaire",
        "amenity": "clinic",
        "fixme": "Localisation dans la rue \u00e0 pr\u00e9ciser (pas de num\u00e9ro)",
        "name": "Centre de consultations de Labattoir",
        "opening_hours": "Mo-Fr 07:00-14:00",
        "phone": "+262 2 69 60 12 86",
        "website": "https://www.reseaux-sante-mayotte.fr/entreprise/centre-de-consultation-labattoir"
      }
    },
    {
      "type": "node",
      "id": 5073390339,
      "lat": -12.7973448,
      "lon": 45.2765505,
      "tags": {
        "addr:city": "Pamandzi",
        "addr:postcode": "97610",
        "addr:street": "Rue du Dispensaire",
        "amenity": "clinic",
        "fixme": "Localisation dans la rue \u00e0 pr\u00e9ciser (pas de num\u00e9ro)",
        "name": "Centre de consultations de Pamandzi",
        "opening_hours": "Mo-Fr 07:00-14:00",
        "phone": "+262 2 69 60 13 93",
        "website": "https://www.reseaux-sante-mayotte.fr/entreprise/centre-de-consultation-pamandzi"
      }
    },
    {
      "type": "node",
      "id": 5073407676,
      "lat": -12.7780999,
      "lon": 45.2284762,
      "tags": {
        "addr:city": "Mamoudzou",
        "addr:postcode": "97600",
        "addr:street": "Rue Mariaz\u00e9",
        "amenity": "clinic",
        "healthcare": "clinic",
        "name": "Centre de consultations Jacaranda",
        "opening_hours": "Mo-Fr 07:00-17:00, Sa 07:00-13:00",
        "phone": "+262 2 69 61 80 00",
        "website": "https://www.reseaux-sante-mayotte.fr/entreprise/centre-de-consultation-de-mamoudzou"
      }
    },
    {
      "type": "node",
      "id": 5073427789,
      "lat": -12.7000633,
      "lon": 45.067228,
      "tags": {
        "addr:city": "Mtsamboro",
        "addr:housenumber": "29",
        "addr:postcode": "97630",
        "addr:street": "Rue De Litchijou",
        "amenity": "clinic",
        "name": "Centre de consultations de M'tsamboro",
        "opening_hours": "Mo-Fr 07:00-14:00",
        "phone": "+262 2 69 62 19 51",
        "website": "https://www.reseaux-sante-mayotte.fr/entreprise/centre-de-consultation-m-tsamboro"
      }
    },
    {
      "type": "node",
      "id": 5073499460,
      "lat": -12.7607852,
      "lon": 45.0863581,
      "tags": {
        "addr:city": "M'Tsangamouji",
        "addr:postcode": "97650",
        "addr:street": "Route d\u00e9partementale 1",
        "amenity": "clinic",
        "fixme": "Localisation dans la rue \u00e0 pr\u00e9ciser (pas de num\u00e9ro)",
        "healthcare": "clinic",
        "name": "Centre de consultations de M'tsangamouji",
        "opening_hours": "Mo-Fr 07:00-14:00",
        "phone": "+262 2 69 62 58 96",
        "website": "https://www.reseaux-sante-mayotte.fr/entreprise/centre-de-consultation-m-tsangamouji"
      }
    },
    {
      "type": "node",
      "id": 5073510903,
      "lat": -12.9101592,
      "lon": 45.1925612,
      "tags": {
        "addr:city": "Bandr\u00e9l\u00e9",
        "addr:postcode": "97660",
        "addr:street": "Route nationale 3",
        "alt_name": "Dispensaire",
        "amenity": "clinic",
        "name": "Centre de consultations de Bandr\u00e9l\u00e9",
        "opening_hours": "Mo-Fr 07:00-14:00",
        "phone": "+262 2 69 62 14 83",
        "website": "https://www.reseaux-sante-mayotte.fr/entreprise/centre-de-consultation-bandrele"
      }
    },
    {
      "type": "node",
      "id": 5073519065,
      "lat": -12.908415,
      "lon": 45.0803912,
      "tags": {
        "addr:city": "Bou\u00e9ni",
        "addr:postcode": "97620",
        "addr:street": "Boulevard des Tortues",
        "amenity": "clinic",
        "name": "Centre de consultations de Bou\u00e9ni",
        "opening_hours": "Mo-Fr 07:00-14:00",
        "phone": "+262 2 69 64 82 00",
        "website": "https://www.reseaux-sante-mayotte.fr/entreprise/centre-de-consultation-boueni"
      }
    },